fieldsurfacetype, streetno, sportsplayed, facilityname, numberfieldcourts, facilitycondition, facilityupgradeage, facility_id, postcode, facilityage, streettype, changerooms, longitude, latitude, faciltysportplayedid, objectid, suburbtown, lga, streetname
null,null,"BMX","Lilydale BMX Club",null,null,null,"YARRAC5444",null,null,"Street",null,145.35670599995,-37.7481569988831,27698,9060,"LILYDALE","YARRA RANGES","Anderson"
null,"115","Fitness / Gymnasium Workouts","Nitro Gym",1,null,null,"YARRAR11444",3137,null,"Road",null,145.259467000403,-38.0053919988504,18548,9289,"KILSYTH","CASEY","Canterbury"
null,null,"Tennis (Outdoor)","Minak Reserve",4,"3. Average","6 - 10 Years","YARRAR11484",3159,"26 - 50 Years","Road",null,145.37278100054,-37.9125899990689,18634,9374,"SELBY","YARRA RANGES","Wombalana"
null,null,"Equestrian","Truganina Club Grounds",null,null,null,"HOBSON11346",3029,null,"Road",null,144.721687999976,-37.8224829992994,26854,3952,"TRUGANINA","WYNDHAM","Woods"
"Turf Pitch",null,"Cricket","Binnak Park",1,null,null,"BANYUL12800",3083,null,"Parade",null,145.080914999471,-37.697331998711,21290,387,"BUNDOORA","BANYULE","Anderson"
null,null,"Sailing","Cowes Yacht Club",null,null,null,"BASSCO11215",3922,null,"Avenue",null,145.233400000018,-38.4490209991763,26756,554,"COWES","BASS COAST","Osborne"
"Synthetic Pitch",null,"Cricket","George Woods Reserve",1,null,null,"KINGST10946",3195,null,"Road",null,145.09837899999,-38.0092119993734,25460,4383,"MORDIALLOC","KINGSTON","Governor"
null,"52","Gymnastics","Cheltnam Youth Club",null,null,null,"KINGST11451",3195,null,"Drive",null,145.114715999686,-37.9897699990324,27332,4433,"BRAESIDE","KINGSTON","Tarnard"
"Wooden Gymnasium","221","Badminton","Deakin YMCA",2,null,null,"WHITEH11007",3125,null,"Hwy",null,145.116445999725,-37.8469499992008,25074,8574,"BURWOOD","WHITEHORSE","Burwood"
"Hard Court",null,"Tennis (Outdoor)","Eley Park",8,"3. Average","11 + Years","WHITEH11009",3151,"26 - 50 Years","Road","Female, Male",145.143021999899,-37.8463089991135,25086,8689,"BURWOOD EAST","WHITEHORSE","Eley"
"Grass",null,"Baseball","Marshall Reserve",1,null,null,"MONASH12036",3166,null,"Road",null,145.138854000283,-37.912046999323,19780,6094,"HUNTINGDALE","MONASH","Ring East"
null,"9","Karate","Keenan karate Centre",1,null,null,"MONASH12031",3149,null,"Road",null,145.114414999907,-37.8563989986846,19771,6182,"MT WAVERLEY","MONASH","Barlyn"
null,"507-515","Squash / Racquetball","Fitzys Gym",null,null,null,"MORELA13022",3055,null,"Street",null,144.945367000411,-37.7649359990146,21862,6548,"BRUNSWICK WEST","MORELAND","Victoria"
"Grass","1562","Baseball","Tyabb Central Reserve",1,null,null,"MORNIN11204",3913,null,"Road",null,145.188857000283,-38.2621929989547,18266,6599,"TYABB","MORNINGTON PENINSULA","Frankston-Flinders"
"Road",null,"Cycling","Somers Circuit",1,null,null,"MORNIN5311",null,null,"Road",null,145.165860000389,-38.3891729993849,27559,6645,null,"MORNINGTON PENINSULA","Camphill"
null,null,"Cycling","Wombat Track",null,null,null,"MACEDO5423",null,null,null,null,144.479613000026,-37.4266159989192,27679,5027,null,"MACEDON RANGES",null
null,null,"Equestrian","Buck Reserve",null,null,null,"MANNIN11361",3111,null,"Road",null,145.186757000266,-37.7664919989868,26888,5152,"DONVALE","MANNINGHAM","Reynolds"
null,"5-15","Fitness / Gymnasium Workouts","Contours Croydon",null,null,null,"MAROON11005",3136,null,"Avenue",null,145.277688999931,-37.79358199889,23181,5434,"CROYDON","MAROONDAH","Kent"
"Synthetic",null,"Basketball","Eynesbury Tennis Centre",1,null,null,"MELTON10915",3338,null,"Road",null,144.562904999527,-37.7672399991982,24724,5638,"EYNESBURY","MELTON","Eynesbury"
null,"65","Volleyball","Melton Indoor Sports Stadium",null,null,null,"MELTON9071",3337,null,"Road",null,144.5678269996,-37.6814989989577,24793,5730,"MELTON","MELTON","Reserve"
null,null,"BMX","Broadford BMX Track",null,null,null,"MITCHE11203",3658,null,"Parade",null,145.05682999977,-37.1994669987397,24059,5872,"BROADFORD","MITCHELL","The"
"Hard Court",null,"Netball","Werribee Sports & Fitness Centre",5,"4. Good",null,"WYNDHA8530",3030,null,"Road","Female, Male",144.640316000408,-37.898600998879,26686,9001,"WERRIBEE","WYNDHAM","Ballan"
null,null,"Netball (indoor)","Hoppers Indoor Sportz",2,null,null,"WYNDHA11288",3029,null,"Court",null,144.727499999839,-37.8719999986371,26982,9002,"HOPPERS CROSSING","WYNDHAM","Graham"
"Carpet Playing Surface","13","Netball (Indoor)","Riverside Indoor Sports",5,null,null,"WYNDHA8521",3030,null,"Avenue",null,144.659073999704,-37.9134919991585,26667,9003,"WERRIBEE","WYNDHAM","Riverside"
null,null,"Polo","National Equestrian Centre",2,null,null,"WYNDHA8516",3030,null,"Road",null,144.674980000132,-37.9241109986971,26653,9004,"WERRIBEE","WYNDHAM","K"
null,null,"Rugby League","Clearwood Drive Reserve",2,null,"New facility under construction","WYNDHA5496",null,"0 - 5 Years","Drive",null,144.71782999978,-37.8400369994521,27809,9005,"TRUGANINA","WYNDHAM","Clearwood"
null,null,"Rugby League","Haines Drive Reserve",2,"5. Very Good",null,"WYNDHA11000",3024,"0 - 5 Years","Road","Female, Male, Umpire/Officials",144.609389000349,-37.8970689990873,27810,9006,"WYNDHAM VALE","WYNDHAM","Haines"
null,null,"Rugby Union","Haines Drive Reserve",2,"5. Very Good",null,"WYNDHA11000",3024,"0 - 5 Years","Road","Female, Male, Umpire/Officials, Unisex",144.609389000349,-37.8970689990873,26571,9007,"WYNDHAM VALE","WYNDHAM","Haines"
"Grass",null,"Rugby Union","Mossfiel Reserve",2,"3. Average","N/A","WYNDHA8514",3029,"26 - 50 Years","Road","Umpire/Officials, Unisex",144.692477999955,-37.8774369989504,26647,9008,"HOPPERS CROSSING","WYNDHAM","Heaths"
null,null,"Shooting Sports","Wyndham Handgun Club",null,null,null,"WYNDHA11205",3030,null,"Road",null,144.640603000401,-37.8983029988894,27283,9009,"WERRIBEE","WYNDHAM","Ballan"
"Concrete",null,"Skating","Boardwalk Skate Park",1,"3. Average","N/A","WYNDHA8492",3030,"0 - 5 Years","Boulevard",null,144.735336000124,-37.8805559989179,26594,9010,"POINT COOK","WYNDHAM","Boardwalk"
"Concrete",null,"Skating","Little River Reserve",1,null,null,"WYNDHA8512",3211,null,"Road",null,144.49740599951,-37.9614169989866,26640,9011,"LITTLE RIVER","WYNDHAM","You Yangs"
"Concrete",null,"Skating","Mossfiel Reserve",1,"4. Good","< 1 Years","WYNDHA8514",3029,"11 - 25 Years","Road",null,144.692477999955,-37.8774369989504,26648,9012,"HOPPERS CROSSING","WYNDHAM","Heaths"
"Concrete",null,"Skating","Presidents Park",1,"3. Average",null,"WYNDHA8518",3030,"6 - 10 Years","Road",null,144.634572000429,-37.8818099989996,26658,9013,"WERRIBEE","WYNDHAM","McGraths"
"Grass",null,"Soccer","Forsyth Road Reserve",2,"5. Very Good",null,"WYNDHA10998",3029,"0 - 5 Years","Road","Female, Male, Umpire/Officials, Unisex",144.729418999695,-37.8608039990255,26567,9014,"TRUGANINA","WYNDHAM","Forsyth"
"Artificial Turf",null,"Soccer","Forsyth Road Reserve",1,"5. Very Good",null,"WYNDHA10998",3029,"0 - 5 Years","Road","Female, Male, Umpire/Officials, Unisex",144.729418999695,-37.8608039990255,26566,9015,"TRUGANINA","WYNDHAM","Forsyth"
"Grass",null,"Soccer","Galvin Park",3,"4. Good","Upgrade in progress","WYNDHA8502",3030,"11 - 25 Years","Road","Umpire/Officials, Unisex",144.650409000095,-37.8870599990877,26619,9016,"WERRIBEE","WYNDHAM","Shaws"
"Grass",null,"Soccer","Grange Reserve Soccer Complex",2,"5. Very Good","N/A","WYNDHA8505",3029,"0 - 5 Years","Road","Umpire/Officials, Unisex",144.67657200013,-37.8608849988679,26622,9017,"HOPPERS CROSSING","WYNDHAM","Hogans"
"Artificial Turf",null,"Soccer","Grange Reserve Soccer Complex",1,"5. Very Good","6 - 10 Years","WYNDHA8505",3029,"6 - 10 Years","Road","Umpire/Officials, Unisex",144.67657200013,-37.8608849988679,26623,9018,"HOPPERS CROSSING","WYNDHAM","Hogans"
"Artificial Turf",null,"Soccer","Saltwater Reserve",3,"5. Very Good",null,"WYNDHA11003",3030,"0 - 5 Years","Road","Female, Male, Umpire/Officials, Unisex",144.752502000045,-37.9093509991689,26580,9019,"POINT COOK","WYNDHAM","Point Cook"
"Grass",null,"Soccer","Tom Roberts Parade Reserve",2,"5. Very Good",null,"WYNDHA11004",3030,"0 - 5 Years","Parade","Female, Male, Umpire/Officials, Unisex",144.727529000391,-37.8940099995174,26583,9020,"POINT COOK","WYNDHAM","Tom Robert"
"Grass",null,"Soccer","VU Wyndham Sporting Complex",1,"4. Good","< 1 Years","WYNDHA8526",3030,"6 - 10 Years","Lane","Female, Male",144.702156999754,-37.8926289987902,26677,9021,"WERRIBEE","WYNDHAM","Hoppers"
"Carpet Playing Surface","13","Soccer (Indoor Soccer / Futsal)","Riverside Indoor Sports",5,null,null,"WYNDHA8521",3030,null,"Avenue",null,144.659073999704,-37.9134919991585,26668,9022,"WERRIBEE","WYNDHAM","Riverside"
"Grass",null,"Softball","Laurie Emmins Reserve",1,"2. Poor","6 - 10 Years","WYNDHA8511",3026,"11 - 25 Years","Road",null,144.764933000101,-37.8521359988681,26637,9023,"LAVERTON NORTH","WYNDHAM","Sayers"
"Grass",null,"Softball","Presidents Park",11,"5. Very Good","< 1 Years","WYNDHA8518",3030,"6 - 10 Years","Road","Female, Male",144.634572000429,-37.8818099989996,26659,9024,"WERRIBEE","WYNDHAM","McGraths"
"25m Pool - Indoor, Spa/Sauna","116","Swimming","Fenix Fitness Club Hoppers Crossing",null,null,null,"WYNDHA8500",3029,null,"Drive",null,144.691056000423,-37.8691269986606,26614,9025,"HOPPERS CROSSING","WYNDHAM","Mossfiel"
"25m Pool - Indoor","35","Swimming","Shawn's Swim School",null,null,null,"WYNDHA8523",3029,null,"Road",null,144.728999999598,-37.8659999994223,26671,9026,"HOPPERS CROSSING","WYNDHAM","Richards"
"50m Pool - Outdoor, Recreation / Play Water Space, Toddlers Pool",null,"Swimming","Werribee Olympic Pool",3,"5. Very Good","1 - 5 Years","WYNDHA8528",3030,null,"Street","Female, Male, Unisex",144.651881999584,-37.9060409994606,26680,9027,"WERRIBEE","WYNDHAM","Watton"
"50m Pool - Indoor, Recreation / Play Water Space, Rehabilitation Pool, Spa/Sauna, Toddlers Pool",null,"Swimming","Wyndham Leisure & Events Centre",5,"5. Very Good",null,"WYNDHA8533",3029,"11 - 25 Years","Road","Female, Male, Unisex",144.68335499999,-37.882172998776,26694,9028,"HOPPERS CROSSING","WYNDHAM","Derrimut"
null,null,"Table Tennis","Werribee Sports & Fitness Centre",5,"4. Good",null,"WYNDHA8530",3030,null,"Road","Female, Male",144.640316000408,-37.898600998879,26687,9029,"WERRIBEE","WYNDHAM","Ballan"
"Hard Court",null,"Tennis (Outdoor)","Cambridge Reserve",6,"4. Good","1 - 5 Years","WYNDHA8494",3029,"11 - 25 Years","Drive","Female, Male",144.675716999655,-37.8710689993511,26598,9030,"HOPPERS CROSSING","WYNDHAM","Barber"
"Hard Court",null,"Tennis (Outdoor)","Chirnside Park",2,"4. Good","< 1 Years","WYNDHA8495",3030,null,"Street","Female, Male",144.652060999777,-37.9048149993845,26602,9031,"WERRIBEE","WYNDHAM","Watton"
"Clay",null,"Tennis (Outdoor)","Chirnside Park",2,"4. Good","< 1 Years","WYNDHA8495",3030,null,"Street","Female, Male",144.652060999777,-37.9048149993845,26603,9032,"WERRIBEE","WYNDHAM","Watton"
"Hard Court",null,"Tennis (Outdoor)","Galvin Park",8,"2. Poor",null,"WYNDHA8502",3030,null,"Road","Female, Male",144.650409000095,-37.8870599990877,26620,9033,"WERRIBEE","WYNDHAM","Shaws"
null,null,"Tennis (Outdoor)","Hoppers Crossing Club",2,null,null,"WYNDHA8508",3029,null,"Drive",null,144.692772999834,-37.8694899993459,26630,9034,"HOPPERS CROSSING","WYNDHAM","Pannam"
"Hard Court",null,"Tennis (Outdoor)","Jamieson Way Tennis & Netball Complex",4,"4. Good","N/A","WYNDHA8510",3030,"0 - 5 Years","Way","Female, Male",144.7485320004,-37.8963119991958,26634,9035,"POINT COOK","WYNDHAM","Jamieson"
"Asphalt",null,"Tennis (Outdoor)","Little River Reserve",2,"4. Good","1 - 5 Years","WYNDHA8512",3211,"6 - 10 Years","Road","Umpire/Officials, Unisex",144.49740599951,-37.9614169989866,26641,9036,"LITTLE RIVER","WYNDHAM","You Yangs"
"Hard Court",null,"Tennis (Outdoor)","Mossfiel Reserve",6,"4. Good","6 - 10 Years","WYNDHA8514",3029,"26 - 50 Years","Road","Female, Male",144.692477999955,-37.8774369989504,26649,9037,"HOPPERS CROSSING","WYNDHAM","Heaths"
"Hard Court",null,"Tennis (Outdoor)","Price Reserse",2,"3. Average",null,"WYNDHA8519",3030,"26 - 50 Years","Road",null,144.691764999526,-37.9733679988575,26662,9038,"WERRIBEE","WYNDHAM","Beach"
"Hard Court",null,"Tennis (Outdoor)","Saltwater Reserve",8,"5. Very Good",null,"WYNDHA11003",3030,"0 - 5 Years","Road","Female, Male, Umpire/Officials, Unisex",144.752502000045,-37.9093509991689,26581,9039,"POINT COOK","WYNDHAM","Point Cook"
null,null,"Tennis (Outdoor)","Sanctuary Lakes Golf Club",3,null,null,"WYNDHA8522",3030,null,"Drive",null,144.762714000019,-37.8960969988911,26670,9040,"POINT COOK","WYNDHAM","Greg Norman"
"Hard Court",null,"Tennis (Outdoor)","Werribee Sports & Fitness Centre",4,"4. Good",null,"WYNDHA8530",3030,null,"Road","Female, Male",144.640316000408,-37.898600998879,26688,9041,"WERRIBEE","WYNDHAM","Ballan"
"Hard Court",null,"Tennis (Outdoor)","Willow Green Park Tennis Courts",2,"3. Average",null,"WYNDHA8531",3030,"6 - 10 Years","Way",null,144.751022999603,-37.8856049989527,26690,9042,"POINT COOK","WYNDHAM","Spindrift"
"Hard Court",null,"Tennis (Outdoor)","Wootten Road Reserve",9,"5. Very Good",null,"WYNDHA11006",3029,"0 - 5 Years","Road","Female, Male, Umpire/Officials, Unisex",144.660000000363,-37.8564999986376,26588,9043,"TARNEIT","WYNDHAM","Wootten"
"Hard Court",null,"Tennis (Outdoor)","Wyndham Green Tennis Courts",1,"3. Average",null,"WYNDHA8532",3024,"6 - 10 Years","Place",null,144.619546000044,-37.8872439988968,26691,9044,"WYNDHAM VALE","WYNDHAM","Amber"
null,null,"Tennis (Outdoor)","Wyndham Waters",2,null,null,"WYNDHA8535",3029,null,"Road",null,144.726537000312,-37.8512209994346,26697,9045,"TRUGANINA","WYNDHAM","Sayers"
"Wooden Flooring",null,"Volleyball","Werribee Sports & Fitness Centre",3,"4. Good",null,"WYNDHA8530",3030,null,"Road","Female, Male",144.640316000408,-37.898600998879,26689,9046,"WERRIBEE","WYNDHAM","Ballan"
"Grass Running Track",null,"Athletics","Citizen’s Park Oval and Jack Dyer Pavilion",1,"2. Poor","11 + Years","YARRAC11007",3121,"26 - 50 Years","Street","Female, Male, Umpire/Officials",145.000351000084,-37.8172179993486,17807,9047,"RICHMOND","YARRA","Gleadell"
"Synthetic Running Track",null,"Athletics","George Knott Athletics Track and Ray Coverdale Pavilion",1,"4. Good","1 - 5 Years","YARRAC10978",3068,"26 - 50 Years","Road","Female, Male",145.002318999856,-37.7842049990468,17767,9048,"CLIFTON HILL","YARRA","Heidelberg"
"Grass",null,"Australian Rules Football","Alfred Crescent Oval and Pavilion",1,"4. Good","1 - 5 Years","YARRAC10993",3065,"0 - 5 Years","Street","Umpire/Officials, Unisex",144.98237699997,-37.7875299987931,17789,9049,"FITZROY","YARRA","Brunswick"
"Grass",null,"Australian Rules Football","Alphington Park Oval and Pavilion",1,"4. Good","1 - 5 Years","YARRAC10967",3067,"51 Years +","Road","Umpire/Officials, Unisex",145.029131000025,-37.7837789988703,17749,9050,"ALPHINGTON","YARRA","Parkview"
"Grass",null,"Australian Rules Football","Citizen’s Park Oval and Jack Dyer Pavilion",1,"2. Poor","11 + Years","YARRAC11007",3121,"26 - 50 Years","Street","Female, Male, Umpire/Officials",145.000351000084,-37.8172179993486,17808,9051,"RICHMOND","YARRA","Gleadell"
"Grass",null,"Australian Rules Football","Loughan Oval and Johnson Pavilion",1,"3. Average","1 - 5 Years","YARRAC10972",3121,"11 - 25 Years","Street","Umpire/Officials, Unisex",145.020461999478,-37.8285759991585,17758,9052,"BURNLEY","YARRA","Swan"
"Grass",null,"Australian Rules Football","Ramsden Street Oval and Pavilion",1,"2. Poor","Upgrade in progress","YARRAC10985",3078,"26 - 50 Years","Street",null,145.003110999733,-37.789872999414,17779,9053,"FAIRFIELD","YARRA","Ramsden"
"Grass",null,"Australian Rules Football","Victoria Park",1,"4. Good","< 1 Years","YARRAC10962",3067,"51 Years +","Street","Male, Umpire/Officials",144.996607000233,-37.7985799995072,17744,9054,"ABBOTSFORD","YARRA","Turner"
"Grass",null,"Australian Rules Football","W T Peterson Oval & Edinburgh Gardens Change Rooms",1,"4. Good","1 - 5 Years","YARRAC10995",3065,"51 Years +","Street","Umpire/Officials, Unisex",144.98237699997,-37.7875299987931,17792,9055,"FITZROY","YARRA","Brunswick"
"Wooden Gymnasium",null,"Basketball","Collingwood Secondary College",2,"3. Average","11 + Years","YARRAC11029",null,"11 - 25 Years","Way",null,144.989029999835,-37.8032559991894,17842,9056,"COLLINGWOOD","YARRA","Mc Cutcheon"
"Wooden Gymnasium",null,"Basketball","Fitzroy Secondary  School",1,null,null,"YARRAC11032",null,null,"Street",null,144.979156999458,-37.8009089994633,17848,9057,"FITZROY","YARRA","Falconer"
"Wooden Gymnasium",null,"Basketball","Melbourne Girls College",2,null,"11 + Years","YARRAC11028",null,"11 - 25 Years","Boulevard",null,145.012699000534,-37.8296899994432,17840,9058,"BURNLEY","YARRA","Yarra"
"Wooden Gymnasium",null,"Basketball","Princes Hill Seconary College",1,null,null,"YARRAC11030",null,null,"Strret",null,144.966586999947,-37.7818179988637,17845,9059,"PRINCES HILL","YARRA","Arnold"
null,null,"Bocce","Edinburgh Gardens Bocce Courts",1,null,null,"YARRAC10999",3065,null,"Street",null,144.98237699997,-37.7875299987931,17798,9061,"FITZROY","YARRA","Brunswick"
null,null,"Bocce","Hardy Gallagher Reserve Bocce Courts",3,null,null,"YARRAC11006",3054,null,"Street",null,144.967057999513,-37.7791969991143,17806,9062,"PRINCESS HILL","YARRA","Park"
null,null,"Boxing","Melbourne Aboriginal Sport and Recreation Gym",null,"3. Average","6 - 10 Years","YARRAC11024",null,"26 - 50 Years","Street",null,144.974448999909,-37.80546699893,17835,9063,"FITZROY","YARRA","Gertrude"
null,null,"Boxing","Richmond Boxing Club",null,"2. Poor","11 + Years","YARRAC11023",null,"26 - 50 Years","Street","Female, Male",145.001524999801,-37.8183799991808,17833,9064,"RICHMOND","YARRA","Gleadell"
null,null,"Boxing","Stanton Street Hall",null,"4. Good","< 1 Years","YARRAC11022",null,"26 - 50 Years","Street",null,144.988163999738,-37.8019559993457,17831,9065,"COLLINGWOOD","YARRA","Stanton"
null,null,"Canoe Polo","Richmond Recreation Centre",null,null,null,"YARRAC11013",3121,null,"Street",null,145.002381000219,-37.8176879988823,17818,9066,"RICHMOND","YARRA","Gleadell"
null,"9","Canoeing","Fairfield Canoe Club",null,null,null,"YARRAC11026",null,null,null,null,145.018758999676,-37.7856389988295,17838,9067,"FAIRFIELD","YARRA","The Esplanade"
null,null,"Canoeing","Fairfield Park Canoe Facility",null,"2. Poor","11 + Years","YARRAC11027",null,"26 - 50 Years","Street",null,145.004221999452,-37.7843699987633,17839,9068,"FAIRFIELD","DAREBIN","Heidelberg"
"Synthetic Pitch",null,"Cricket","Alan Bain Reserve and Pavilion",1,"4. Good","1 - 5 Years","YARRAC10983",3121,"11 - 25 Years","Street","Umpire/Officials, Unisex",145.001134000209,-37.830217999443,17775,9069,"CREMORNE","YARRA","Church"
"Synthetic Pitch",null,"Cricket","Alfred Crescent Oval and Pavilion",1,"4. Good","1 - 5 Years","YARRAC10993",3065,"0 - 5 Years","Street","Umpire/Officials, Unisex",144.98237699997,-37.7875299987931,17790,9070,"FITZROY","YARRA","Brunswick"
"Synthetic Pitch",null,"Cricket","Alphington Park Oval and Pavilion",1,"4. Good","1 - 5 Years","YARRAC10967",3067,"51 Years +","Road","Umpire/Officials, Unisex",145.029131000025,-37.7837789988703,17750,9071,"ALPHINGTON","YARRA","Parkview"
"Synthetic Pitch",null,"Cricket","Burnley Park Oval and O’Connell Pavilion",1,"4. Good","1 - 5 Years","YARRAC10970",3121,"0 - 5 Years","Grove","Umpire/Officials, Unisex",145.014145000422,-37.826102999182,17754,9072,"BURNLEY","YARRA","Park"
null,"576","Fitness / Gymnasium Workouts","Genesis Richmond",1,null,null,"YARRAC11012",3121,null,"Street",null,145.019798000531,-37.8272299989764,17816,9111,"RICHMOND","YARRA","Swan"
"Turf Pitch",null,"Cricket","Citizen’s Park Oval and Jack Dyer Pavilion",1,"2. Poor","11 + Years","YARRAC11007",3121,"26 - 50 Years","Street","Female, Male, Umpire/Officials",145.000351000084,-37.8172179993486,17809,9073,"RICHMOND","YARRA","Gleadell"
"Turf Pitch",null,"Cricket","Corben Oval",1,"2. Poor","11 + Years","YARRAC10964",3067,"26 - 50 Years","Road","Male",145.007718000194,-37.7956429992036,17746,9074,"ABBOTSFORD","YARRA","Yarra Bend"
"Synthetic Pitch",null,"Cricket","Fairfield Park Oval and Maxwell Sutherland Pavilion",1,"2. Poor","6 - 10 Years","YARRAC10984",3078,"26 - 50 Years","Road","Male, Umpire/Officials",145.009953999482,-37.7857379992617,17778,9075,"FAIRFIELD","YARRA","Yarra Bend"
"Synthetic Pitch",null,"Cricket","Fairlea Ovals",2,"1. Very Poor","11 + Years","YARRAC10989",3078,"26 - 50 Years","Road","Male",145.007718000194,-37.7956429992036,17784,9076,"FAIRFIELD","YARRA","Yarra Bend"
"Synthetic Pitch",null,"Cricket","Fletcher 1 and 2 Soccer Pitches and Graham Pavilion",1,"3. Average","11 + Years","YARRAC10971",3121,"26 - 50 Years","Street","Male, Umpire/Officials",145.020461999478,-37.8285759991585,17756,9077,"BURNLEY","YARRA","Swan"
"Turf Pitch",null,"Cricket","Loughan Oval and Johnson Pavilion",1,"3. Average","1 - 5 Years","YARRAC10972",3121,"11 - 25 Years","Street","Umpire/Officials, Unisex",145.020461999478,-37.8285759991585,17759,9078,"BURNLEY","YARRA","Swan"
"Turf Pitch",null,"Cricket","Mc Cutcheon Oval",1,null,null,"YARRAC11021",null,null,"Road",null,145.008575000236,-37.7999749989253,17828,9079,"FAIRFIELD","YARRA","Yarra Bend"
"Synthetic Pitch",null,"Cricket","Ramsden Street Oval and Pavilion",1,"2. Poor","Upgrade in progress","YARRAC10985",3078,"26 - 50 Years","Street",null,145.003110999733,-37.789872999414,17780,9080,"FAIRFIELD","YARRA","Ramsden"
"Turf Pitch",null,"Cricket","Sir Herbert Olney Oval",1,"2. Poor","11 + Years","YARRAC10963",3067,"26 - 50 Years","Road","Male, Umpire/Officials",145.007718000194,-37.7956429992036,17745,9081,"ABBOTSFORD","YARRA","Yarra Bend"
"Synthetic Pitch",null,"Cricket","W J COX",1,"1. Very Poor","11 + Years","YARRAC11020",null,"26 - 50 Years","Road","Male",145.008575000236,-37.7999749989253,17827,9082,"FAIRFIELD","YARRA","Yarra Bend"
"Synthetic Pitch",null,"Cricket","W T Peterson Oval & Edinburgh Gardens Change Rooms",1,"4. Good","1 - 5 Years","YARRAC10995",3065,"51 Years +","Street","Umpire/Officials, Unisex",144.98237699997,-37.7875299987931,17793,9083,"FITZROY","YARRA","Brunswick"
"Concrete Pitch",null,"Cricket","Westfield Ovals",1,null,null,"YARRAC10990",3078,null,"Road",null,145.007718000194,-37.7956429992036,17786,9084,"FAIRFIELD","YARRA","Yarra Bend"
"Turf Pitch",null,"Cricket","WT Long Oval",1,null,null,"YARRAC10965",3067,null,"Road",null,145.007718000194,-37.7956429992036,17747,9085,"ABBOTSFORD","YARRA","Yarra Bend"
"Road",null,"Cycling","Kew Boulevard",1,null,null,"YARRAC5306",null,null,"Boulevard",null,145.010119999928,-37.8065289989313,27554,9086,"KEW","BOROONDARA","Kew"
null,null,"Cycling","Yarra Boulevard Loop",1,null,null,"YARRAC5282",null,null,"Boulevard",null,145.015130000056,-37.7936999990177,27531,9087,"RICHMOND","BOROONDARA","Yarra"
null,"41","Fitness / Gymnasium Workouts","All Seasons Personal Fitness",null,null,null,"YARRAC11054",3121,null,"Road",null,144.991239000113,-37.8174789988842,17870,9088,"RICHMOND","YARRA","Bridge"
null,"30","Fitness / Gymnasium Workouts","Andrew Baxter Body Concepts Studio",null,null,null,"YARRAC11055",3121,null,"Street",null,144.99073600004,-37.8261149989673,17871,9089,"RICHMOND","YARRA","Cremorne"
null,"738","Fitness / Gymnasium Workouts","Anytime Fitness Alphington",null,null,null,"YARRAC11034",3067,null,"Road",null,145.031394000179,-37.7809929987406,17850,9090,"ALPHINGTON","YARRA","Heidelberg"
null,"8/53","Fitness / Gymnasium Workouts","Anytime Fitness Richmond",null,null,null,"YARRAC11056",3121,null,"Street",null,145.003817999949,-37.8203979986448,17872,9091,"RICHMOND","YARRA","Coppin"
null,"405","Fitness / Gymnasium Workouts","Australian Institute of Fitness",1,null,null,"YARRAC11019",3121,null,"Street",null,144.9981559995,-37.8249219994108,17826,9092,"RICHMOND","YARRA","Church"
null,"474","Fitness / Gymnasium Workouts","Balance & Control Pilates Studio",null,null,null,"YARRAC11057",3121,null,"Street",null,145.007549000222,-37.8115109992377,17873,9093,"RICHMOND","YARRA","Victoria"
null,null,"Fitness / Gymnasium Workouts","Collingwood Housing Estate Gymnasium",1,"3. Average","6 - 10 Years","YARRAC10981",3066,"11 - 25 Years","Street",null,144.992862999603,-37.8028699990725,17773,9094,"COLLINGWOOD","YARRA","Hoddle"
null,null,"Fitness / Gymnasium Workouts","Collingwood Leisure Centre",1,"5. Very Good","< 1 Years","YARRAC10979",3068,"26 - 50 Years","Street","Female, Male, Unisex",144.994351000382,-37.7879959988648,17770,9095,"CLIFTON HILL","YARRA","Turnbull"
null,"116","Fitness / Gymnasium Workouts","CrossFit Richmond",1,null,null,"YARRAC11015",3121,null,"Street",null,145.009579999452,-37.8181619991996,17822,9096,"RICHMOND","YARRA","Murphy"
null,"62","Fitness / Gymnasium Workouts","CrossFit Victoria",1,null,null,"YARRAC11003",3065,null,"Street",null,144.977529999805,-37.7959399986843,17803,9097,"FITZROY","YARRA","Rose"
null,"2/62","Fitness / Gymnasium Workouts","CrossFit Victoria",null,null,null,"YARRAC11037",3065,null,"Street",null,144.977607999633,-37.7959639990843,17853,9098,"FITZROY","YARRA","Rose"
null,"278","Fitness / Gymnasium Workouts","Curves North Fitzroy",null,null,null,"YARRAC11050",3068,null,"Road",null,144.985022000361,-37.7820899986971,17866,9099,"FITZROY NORTH","YARRA","St. Georges"
null,"193-197","Fitness / Gymnasium Workouts","Fernwood - Carlton",null,null,null,"YARRAC11035",3053,null,"Street",null,144.974951999817,-37.7955839986874,17851,9100,"CARLTON","MELBOURNE","Nicholson"
null,"197","Fitness / Gymnasium Workouts","Fernwood Carlton",1,null,null,"YARRAC10975",3053,null,"Street",null,144.975107999639,-37.795620998746,17763,9101,"CARLTON","MELBOURNE","Nicholson"
null,"133","Fitness / Gymnasium Workouts","Fitness 24 Hours",null,null,null,"YARRAC11046",3065,null,"Street",null,144.979215000182,-37.798089999533,17862,9102,"FITZROY","YARRA","Johnston"
null,"560","Fitness / Gymnasium Workouts","Fitness First",1,null,null,"YARRAC11016",3121,null,"Street",null,144.996400000277,-37.8293699987491,17823,9103,"RICHMOND","YARRA","Church"
null,"4","Fitness / Gymnasium Workouts","Fitness Live",null,null,null,"YARRAC11059",3121,null,"Street",null,145.002458000437,-37.8203349992102,17875,9104,"RICHMOND","YARRA","Stephenson"
null,"488","Fitness / Gymnasium Workouts","Fitness Ring Studio",null,null,null,"YARRAC11066",3121,null,"Street",null,144.994547999861,-37.8099369993726,17882,9105,"RICHMOND","YARRA","Victoria"
null,null,"Fitness / Gymnasium Workouts","fitness Xplosion",null,null,null,"YARRAC11051",3068,null,"Road",null,144.976276999653,-37.7913509990952,17867,9106,"FITZROY NORTH","YARRA","St. Georges"
null,"212","Fitness / Gymnasium Workouts","Fitnessland Gym",1,null,null,"YARRAC10992",3078,null,"Road",null,145.025109000068,-37.7790089989339,17788,9107,"FAIRFIELD","DAREBIN","Grange"
null,"358","Fitness / Gymnasium Workouts","FITROCk",1,null,null,"YARRAC11017",3121,null,"Street",null,144.988844000113,-37.8246289988723,17824,9108,"RICHMOND","YARRA","Swan"
null,"175","Fitness / Gymnasium Workouts","Fitzroy Pilates Studios",null,null,null,"YARRAC11038",3065,null,"Street",null,144.977592000372,-37.8022019986821,17854,9109,"FITZROY","YARRA","Brunswick"
null,null,"Fitness / Gymnasium Workouts","Fitzroy Swimming Pool",null,"3. Average","6 - 10 Years","YARRAC10998",3065,"26 - 50 Years","Parade","Female, Male",144.980899999659,-37.7938999987901,17797,9110,"FITZROY","YARRA","Alexandra"
null,"41","Fitness / Gymnasium Workouts","Goodlife Health Club",null,null,null,"YARRAC11039",3065,null,"Street",null,145.119814000317,-37.9733089990589,17855,9112,"FITZROY","KINGSTON","Johnson"
null,"191","Fitness / Gymnasium Workouts","Healthy Fit",null,null,null,"YARRAC11052",3068,null,"Road",null,144.982524999872,-37.7845329993936,17868,9113,"FITZROY NORTH","YARRA","St. Georges"
null,"191","Fitness / Gymnasium Workouts","Healthy Fit",1,null,null,"YARRAC11004",3065,null,"Road",null,144.982524999872,-37.7845329993936,17804,9114,"FITZROY","YARRA","St Georges"
null,"41","Fitness / Gymnasium Workouts","Hunts Fitness Centre",null,null,null,"YARRAC11040",3065,null,"Street",null,144.975968999449,-37.7980699990222,17856,9115,"FITZROY","YARRA","Johnston"
null,"41","Fitness / Gymnasium Workouts","Hunts Squash & Fitness Centre",1,null,null,"YARRAC11001",3065,null,"Street",null,144.975968999449,-37.7980699990222,17800,9116,"FITZROY","YARRA","Johnston"
null,"107","Fitness / Gymnasium Workouts","Hurl's Fitness",1,null,null,"YARRAC10980",3068,null,"Parade",null,144.989794000567,-37.789496999248,17772,9117,"CLIFTON HILL","YARRA","Queens"
null,"401","Fitness / Gymnasium Workouts","Lifestyle Fitness Centre",1,null,null,"YARRAC11018",3121,null,"Street",null,144.967067999553,-37.8099239986841,17825,9118,"RICHMOND","MELBOURNE","Church"
null,null,"Fitness / Gymnasium Workouts","Melbourne Aboriginal Sport and Recreation Gym",null,null,null,"YARRAC11024",null,null,"Street",null,144.974448999909,-37.80546699893,17836,9119,"FITZROY","YARRA","Gertrude"
null,"81","Fitness / Gymnasium Workouts","Mind and Body",null,null,null,"YARRAC11041",3065,null,"Street",null,144.975968999449,-37.7980699990222,17857,9120,"FITZROY","YARRA","Johnston"
null,"25","Fitness / Gymnasium Workouts","Muscle & Body Shape Gym",1,null,null,"YARRAC11011",3121,null,"Street",null,144.992692999856,-37.8237729993997,17815,9121,"RICHMOND","YARRA","Wangaratta"
null,"45","Fitness / Gymnasium Workouts","Pisces Speacilised Fitness",1,null,null,"YARRAC11014",3121,null,"Road",null,144.9914549995,-37.8175269991757,17821,9122,"RICHMOND","YARRA","Bridge"
null,"83","Fitness / Gymnasium Workouts","Positive Edge Personal Training",null,null,null,"YARRAC11042",3065,null,"Parade",null,144.978209999865,-37.7933239991468,17858,9123,"FITZROY","YARRA","Alexandra"
null,"252","Fitness / Gymnasium Workouts","Richmond  studio and Aerial Divas",null,null,null,"YARRAC11060",3121,null,"Street",null,144.996591000397,-37.834324998948,17876,9124,"RICHMOND","YARRA","Church"
null,null,"Fitness / Gymnasium Workouts","Richmond Boxing Club",null,null,null,"YARRAC11023",null,null,"Street",null,145.001524999801,-37.8183799991808,17834,9125,"RICHMOND","YARRA","Gleadell"
null,null,"Fitness / Gymnasium Workouts","Richmond Recreation Centre",1,null,null,"YARRAC11013",3121,null,"Street",null,145.002381000219,-37.8176879988823,17820,9126,"RICHMOND","YARRA","Gleadell"
null,null,"Fitness / Gymnasium Workouts","Richmond Recreation Centre",1,"4. Good","6 - 10 Years","YARRAC11010",3121,"51 Years +","Street",null,145.000351000084,-37.8172179993486,17813,9127,"RICHMOND","YARRA","Gleadell"
null,"621","Fitness / Gymnasium Workouts","Simon's Personal Training Studio",null,null,null,"YARRAC11043",3065,null,"Street",null,144.977400999825,-37.8045739988192,17859,9128,"FITZROY","YARRA","Brunswick"
null,"103","Fitness / Gymnasium Workouts","Skulpt Personal Training Richmond Personal Training",null,null,null,"YARRAC11061",3121,null,"Street",null,145.012396000209,-37.8181599988249,17877,9129,"RICHMOND","YARRA","Murphy"
null,"620","Fitness / Gymnasium Workouts","Space Health Club",null,null,null,"YARRAC11062",3121,null,"Street",null,144.994547999861,-37.8099369993726,17878,9130,"RICHMOND","YARRA","Victoria"
null,"374","Fitness / Gymnasium Workouts","Srpt Elysium Health & Lifestyle",null,null,null,"YARRAC11063",3121,null,"Road",null,145.004050000553,-37.8192889988919,17879,9131,"RICHMOND","YARRA","Bridge"
null,null,"Fitness / Gymnasium Workouts","Stanton Street Hall",null,null,null,"YARRAC11022",null,null,"Street",null,144.988163999738,-37.8019559993457,17832,9132,"COLLINGWOOD","YARRA","Stanton"
null,"732","Fitness / Gymnasium Workouts","The Spin Room",null,null,null,"YARRAC11053",3068,null,"Street",null,144.978000000101,-37.7822469987075,17869,9133,"FITZROY NORTH","YARRA","Nicholson"
null,"135","Fitness / Gymnasium Workouts","Time 4 Fitness",1,null,null,"YARRAC11000",3065,null,"Street",null,144.975968999449,-37.7980699990222,17799,9134,"FITZROY","YARRA","Johnston"
null,"33","Fitness / Gymnasium Workouts","Unique Fitness Studio",null,null,null,"YARRAC11064",3121,null,"Street",null,144.996172000033,-37.8254889987352,17880,9135,"RICHMOND","YARRA","Waverley"
null,"106","Fitness / Gymnasium Workouts","Vibes Fitness",null,null,null,"YARRAC11044",3065,null,"Street",null,144.979798999844,-37.7955719994591,17860,9136,"FITZROY","YARRA","Leicester"
null,"393","Fitness / Gymnasium Workouts","Vigor Health & Fitness",1,null,null,"YARRAC11002",3065,null,"Street",null,144.984292999653,-37.7976119992192,17802,9137,"FITZROY","YARRA","Smith"
null,"393","Fitness / Gymnasium Workouts","Vigor Health & Fitness",null,null,null,"YARRAC11045",3065,null,"Street",null,144.984292999653,-37.7976119992192,17861,9138,"FITZROY","YARRA","Smith"
null,"509-511","Fitness / Gymnasium Workouts","Zap Fitness Richmond",null,null,null,"YARRAC11058",3121,null,"Road",null,145.007592000437,-37.8192009991825,17874,9139,"RICHMOND","YARRA","Bridge"
"Grass",null,"Gaelic Football","Mc Cutcheon Oval",null,null,null,"YARRAC11021",null,null,"Road",null,145.008575000236,-37.7999749989253,17829,9140,"FAIRFIELD","YARRA","Yarra Bend"
"9 Hole Course - Public",null,"Golf","Burnley Golf Course",1,"4. Good","1 - 5 Years","YARRAC10974",3121,"26 - 50 Years","Street","Female, Male",145.020461999478,-37.8285759991585,17762,9141,"BURNLEY","YARRA","Swan"
"18 Hole Course - Private",null,"Golf","Latrobe Golf Course",1,null,null,"YARRAC10991",3078,null,"Road",null,145.034195999665,-37.786366999206,17787,9142,"FAIRFIELD","YARRA","Farm"
"18 Hole Course - Public",null,"Golf","Yarra Bend Golf Course",1,"4. Good","1 - 5 Years","YARRAC10966",3067,"26 - 50 Years","Road","Unisex",145.007718000194,-37.7956429992036,17748,9143,"ABBOTSFORD","YARRA","Yarra Bend"
"Grass",null,"Lawn Bowls","Alphington Bowls Club",2,"3. Average","1 - 5 Years","YARRAC10968",3067,null,"Road",null,145.029131000025,-37.7837789988703,17752,9144,"ALPHINGTON","YARRA","Parkview"
"Synthetic Pitch",null,"Lawn Bowls","Fitzroy Victoria Bowls and Sports Club",2,"4. Good","6 - 10 Years","YARRAC10996",3065,"26 - 50 Years","Street",null,144.98237699997,-37.7875299987931,17794,9145,"FITZROY","YARRA","Brunswick"
"Grass",null,"Lawn Bowls","Richmond Union Bowling Club",2,"4. Good","1 - 5 Years","YARRAC11008",3121,"26 - 50 Years","Street",null,145.000351000084,-37.8172179993486,17810,9146,"RICHMOND","YARRA","Gleadell"
null,"207","Martial Arts","Aiki No Michi Aikido",null,null,null,"YARRAC11047",3065,null,"Street",null,144.975968999449,-37.7980699990222,17863,9147,"FITZROY","YARRA","Johnston"
null,"478","Martial Arts","Australian Kung Fu Acadamy",null,null,null,"YARRAC11036",3066,null,"Street",null,144.982586999449,-37.808726998834,17852,9148,"COLLINGWOOD","YARRA","Smith"
null,"478","Martial Arts","Australian Kung Fu Acadamy",1,null,null,"YARRAC10982",3066,null,"Street",null,144.982586999449,-37.808726998834,17774,9149,"COLLINGWOOD","YARRA","Smith"
null,"555","Martial Arts","Dominance Mixed Martial Arts",null,null,null,"YARRAC11065",3121,null,"Street",null,144.994547999861,-37.8099369993726,17881,9150,"RICHMOND","YARRA","Victoria"
null,"214","Martial Arts","Field Aikido Centre",null,null,null,"YARRAC11048",3065,null,"Street",null,144.983714999509,-37.7979679987615,17864,9151,"FITZROY","YARRA","Kerr"
null,null,"Martial Arts","George Knott Athletics Track and Ray Coverdale Pavilion",null,null,null,"YARRAC10978",3068,null,"Road",null,145.002318999856,-37.7842049990468,17769,9152,"CLIFTON HILL","YARRA","Heidelberg"
null,"310","Martial Arts","Inner City Systema",null,null,null,"YARRAC11049",3065,null,"Street",null,144.981553999496,-37.8077079989347,17865,9153,"FITZROY","YARRA","Gore"
null,"439","Martial Arts","Seido-Juku Karate",null,null,null,"YARRAC11067",3121,null,"Street",null,144.988844000113,-37.8246289988723,17883,9154,"RICHMOND","YARRA","Swan"
null,"96","Martial Arts","Wing Chun Kung Fu Jee Shin",null,null,null,"YARRAC11033",3067,null,"Street",null,144.992341999883,-37.805706998662,17849,9155,"ABBOTSFORD","YARRA","Hoddle"
"Synthetic",null,"Netball","Mayor’s Park Tennis Courts and Clubhouse",2,"4. Good","6 - 10 Years","YARRAC10977",3068,"26 - 50 Years","Street","Female, Male",144.994351000382,-37.7879959988648,17765,9156,"CLIFTON HILL","YARRA","Hoddle"
"Synthetic",null,"Netball","Melbourne Girls College",3,null,null,"YARRAC11028",null,null,"Boulevard",null,145.012699000534,-37.8296899994432,17841,9157,"BURNLEY","YARRA","Yarra"
"Synthetic",null,"Netball","Richmond Community Courts",2,"3. Average","6 - 10 Years","YARRAC11009",3121,"11 - 25 Years","Street","Female, Male",145.000351000084,-37.8172179993486,17811,9158,"RICHMOND","YARRA","Gleadell"
"Plexipave",null,"Netball","Ryan’s Reserve Netball and Tennis Facility and Pavilion",4,"3. Average","6 - 10 Years","YARRAC10973",3121,"11 - 25 Years","Street","Female, Male",145.009956000176,-37.8273099986845,17760,9159,"BURNLEY","YARRA","Swan"
null,null,"Skating","Edinburgh Gardens Skate Bowl",1,"3. Average","1 - 5 Years","YARRAC11005",3068,"11 - 25 Years","Road",null,144.983024000391,-37.7866149993799,17805,9160,"FITZROY NORTH","YARRA","St Georges"
null,null,"Skating","Quarries Park Skate Facility",1,null,null,"YARRAC10988",3078,null,"Road",null,145.004188000347,-37.790642998642,17783,9161,"FAIRFIELD","YARRA","Heidelberg"
"Grass",null,"Soccer","Alan Bain Reserve and Pavilion",1,"4. Good","1 - 5 Years","YARRAC10983",3121,"11 - 25 Years","Street","Umpire/Officials, Unisex",145.001134000209,-37.830217999443,17776,9162,"CREMORNE","YARRA","Church"
"Grass",null,"Soccer","Alphington Park Oval and Pavilion",1,"4. Good","1 - 5 Years","YARRAC10967",3067,"51 Years +","Road","Umpire/Officials, Unisex",145.029131000025,-37.7837789988703,17751,9163,"ALPHINGTON","YARRA","Parkview"
"Grass",null,"Soccer","Atherton Gardens Reserve",1,null,null,"YARRAC10994",3065,null,"Street",null,144.979067000538,-37.8033149989429,17791,9164,"FITZROY","YARRA","Napier"
"Grass",null,"Soccer","Bastow 1 and 2 Soccer Pitches and Gillon Pavilion",2,"3. Average","1 - 5 Years","YARRAC10969",3121,"26 - 50 Years","Street","Male, Umpire/Officials",145.020461999478,-37.8285759991585,17753,9165,"BURNLEY","YARRA","Swan"
"Grass",null,"Soccer","Burnley Park Oval and O’Connell Pavilion",1,"4. Good","1 - 5 Years","YARRAC10970",3121,"0 - 5 Years","Grove","Umpire/Officials, Unisex",145.014145000422,-37.826102999182,17755,9166,"BURNLEY","YARRA","Park"
"Grass",null,"Soccer","Coulson Reserve and Pavilion Soccer Pitch and Pavilion",1,"3. Average","1 - 5 Years","YARRAC10976",3068,"26 - 50 Years","Parade","Male, Umpire/Officials",144.996729000175,-37.7863849989028,17764,9167,"CLIFTON HILL","YARRA","Queens"
"Grass",null,"Soccer","Fairfield Park Oval and Maxwell Sutherland Pavilion",1,"2. Poor","6 - 10 Years","YARRAC10984",3078,"26 - 50 Years","Road","Male, Umpire/Officials",145.009953999482,-37.7857379992617,17777,9168,"FAIRFIELD","YARRA","Yarra Bend"
"Grass",null,"Soccer","Fairlea Ovals",null,"1. Very Poor","11 + Years","YARRAC10989",3078,"26 - 50 Years","Road","Male",145.007718000194,-37.7956429992036,17785,9169,"FAIRFIELD","YARRA","Yarra Bend"
"Grass",null,"Soccer","Fletcher 1 and 2 Soccer Pitches and Graham Pavilion",1,"3. Average","11 + Years","YARRAC10971",3121,"26 - 50 Years","Street","Male, Umpire/Officials",145.020461999478,-37.8285759991585,17757,9170,"BURNLEY","YARRA","Swan"
"Grass",null,"Soccer","George Knott Athletics Track and Ray Coverdale Pavilion",1,"4. Good","1 - 5 Years","YARRAC10978",3068,"26 - 50 Years","Road","Female, Male",145.002318999856,-37.7842049990468,17768,9171,"CLIFTON HILL","YARRA","Heidelberg"
"Grass",null,"Soccer","Mc Cutcheon Oval",null,null,null,"YARRAC11021",null,null,"Road",null,145.008575000236,-37.7999749989253,17830,9172,"FAIRFIELD","YARRA","Yarra Bend"
"Grass",null,"Soccer","Walker Street Soccer Pitch",1,null,null,"YARRAC10986",3078,null,"Street",null,145.003110999733,-37.789872999414,17781,9173,"FAIRFIELD","YARRA","Walker"
"Grass",null,"Soccer","Yambla Reserve and Pavilion",1,"3. Average","6 - 10 Years","YARRAC10987",3078,"26 - 50 Years","Street","Male, Umpire/Officials",145.003110999733,-37.789872999414,17782,9174,"FAIRFIELD","YARRA","Walker"
"Wooden Gymnasium",null,"Soccer (Indoor Soccer / Futsal)","Collingwood Secondary College",2,null,null,"YARRAC11029",null,null,"Way",null,144.989029999835,-37.8032559991894,17844,9175,"COLLINGWOOD","YARRA","Mc Cutcheon"
"Wooden Gymnasium",null,"Soccer (Indoor Soccer / Futsal)","Princes Hill Seconary College",1,null,null,"YARRAC11030",null,null,"Strret",null,144.966586999947,-37.7818179988637,17846,9176,"PRINCES HILL","YARRA","Arnold"
null,null,"Soccer (Indoor Soccer / Futsal)","Princess Hill Primary School",1,null,null,"YARRAC11031",null,null,"Street",null,144.962780999996,-37.7809919994595,17847,9177,"PRINCES HILL","MELBOURNE","Pigdon"
null,"41","Squash / Racquetball","Hunts Squash & Fitness Centre",null,null,null,"YARRAC11001",3065,null,"Street",null,144.975968999449,-37.7980699990222,17801,9178,"FITZROY","YARRA","Johnston"
"25m Pool - Indoor, Childrens Learning Pool, Toddlers Pool",null,"Swimming","Collingwood Leisure Centre",3,"5. Very Good","< 1 Years","YARRAC10979",3068,"26 - 50 Years","Street","Female, Male, Unisex",144.994351000382,-37.7879959988648,17771,9179,"CLIFTON HILL","YARRA","Turnbull"
"50m Pool - Outdoor, Toddlers Pool",null,"Swimming","Fitzroy Swimming Pool",2,"3. Average","6 - 10 Years","YARRAC10998",3065,"26 - 50 Years","Parade","Female, Male",144.980899999659,-37.7938999987901,17796,9180,"FITZROY","YARRA","Alexandra"
"50m Pool - Indoor, Childrens Learning Pool, Toddlers Pool",null,"Swimming","Richmond Recreation Centre",3,null,null,"YARRAC11010",3121,null,"Street",null,145.000351000084,-37.8172179993486,17814,9181,"RICHMOND","YARRA","Gleadell"
"50m Pool - Indoor, Toddlers Pool",null,"Swimming","Richmond Recreation Centre",2,"4. Good","6 - 10 Years","YARRAC11013",3121,"51 Years +","Street","Female, Male",145.002381000219,-37.8176879988823,17819,9182,"RICHMOND","YARRA","Gleadell"
null,"18","Tennis (Indoor)","Melbourne Royal Tennis",null,null,null,"YARRAC11025",3121,null,"Street",null,144.990381999439,-37.8184729988649,17837,9183,"RICHMOND","YARRA","Sherwood"
"Clay",null,"Tennis (Outdoor)","Fitzroy Tennis Courts and Clubhouse",6,"3. Average","Upgrade in progress","YARRAC10997",3065,"26 - 50 Years","Street","Female, Male",144.98237699997,-37.7875299987931,17795,9184,"FITZROY","YARRA","Brunswick"
"Artificial Turf",null,"Tennis (Outdoor)","Mayor’s Park Tennis Courts and Clubhouse",4,"4. Good","6 - 10 Years","YARRAC10977",3068,"26 - 50 Years","Street","Female, Male",144.994351000382,-37.7879959988648,17766,9185,"CLIFTON HILL","YARRA","Hoddle"
"Artificial Turf, Plexipave, Synthetic Pitch",null,"Tennis (Outdoor)","Richmond Community Courts",2,null,null,"YARRAC11009",3121,null,"Street",null,145.000351000084,-37.8172179993486,17812,9186,"RICHMOND","YARRA","Gleadell"
"Plexipave",null,"Tennis (Outdoor)","Ryan’s Reserve Netball and Tennis Facility and Pavilion",4,"3. Average","6 - 10 Years","YARRAC10973",3121,"11 - 25 Years","Street","Female, Male",145.009956000176,-37.8273099986845,17761,9187,"BURNLEY","YARRA","Swan"
null,null,"Underwater Hockey","Richmond Recreation Centre",1,null,null,"YARRAC11013",3121,null,"Street",null,145.002381000219,-37.8176879988823,17817,9188,"RICHMOND","YARRA","Gleadell"
"Wooden Gymnasium",null,"Volleyball","Collingwood Secondary College",2,null,null,"YARRAC11029",null,null,"Way",null,144.989029999835,-37.8032559991894,17843,9189,"COLLINGWOOD","YARRA","Mc Cutcheon"
"Synthetic Pitch",null,"Cricket","Mt Lilydale Sports Ovals",1,null,null,"YARRAR11459",3140,null,"Road",null,145.360512999884,-37.7447989990106,18581,9252,"LILYDALE","YARRA RANGES","Quarry"
"Outdoor Archery",null,"Archery","Sherbrooke Archers",1,"3. Average","11 + Years","YARRAR11487",3156,"26 - 50 Years","Road",null,145.307646999988,-37.9052789987722,18642,9190,"UPPER FERNTREE GULLY","YARRA RANGES","New"
"Synthetic Running Track",null,"Athletics","Morrison Reserve",1,"5. Very Good","Upgrade in progress","YARRAR11476",3796,"0 - 5 Years","Road","Unisex",145.386234999633,-37.7734509994703,18615,9191,"MOUNT EVELYN","YARRA RANGES","Old Hereford"
"Grass","1A","Australian Rules Football","Belgrave Recreation Reserve",1,"4. Good","6 - 10 Years","YARRAR11425",3160,"26 - 50 Years","Road","Male, Umpire/Officials",145.344860000315,-37.9157399994145,18505,9192,"BELGRAVE","YARRA RANGES","Reserve"
"Grass","10/12","Australian Rules Football","Belgrave South Recreation Reserve",1,"3. Average","1 - 5 Years","YARRAR11426",3160,"26 - 50 Years","Road","Male, Umpire/Officials",145.355946999893,-37.9315359992218,18507,9193,"BELGRAVE SOUTH","YARRA RANGES","Mt Morton"
"Grass",null,"Australian Rules Football","Brice Avenue Reserve",1,"2. Poor","1 - 5 Years","YARRAR11469",3138,"26 - 50 Years","Avenue",null,145.31830900054,-37.7845479992296,18606,9194,"MOOROOLBARK","YARRA RANGES","Brice"
"Grass","249/263","Australian Rules Football","Don Road Sporting Complex",1,"4. Good","1 - 5 Years","YARRAR11438",3777,"26 - 50 Years","Road","Male, Umpire/Officials",145.539657999613,-37.6687859987112,18530,9195,"HEALESVILLE","YARRA RANGES","Don"
"Grass",null,"Australian Rules Football","Halley Supple Reserve",1,"3. Average","1 - 5 Years","YARRAR11432",3770,"26 - 50 Years","0","Male, Umpire/Officials",145.380213999493,-37.7294849987709,18520,9196,"COLDSTREAM","YARRA RANGES","South Gateway"
"Grass",null,"Australian Rules Football","Ingram Road Reserve",1,"2. Poor","6 - 10 Years","YARRAR11431",3770,"26 - 50 Years","Road",null,145.382759000325,-37.7344189990578,18518,9197,"COLDSTREAM","YARRA RANGES","Ingram"
"Grass",null,"Australian Rules Football","Kalorama Memorial Reserve",1,"2. Poor","11 + Years","YARRAR11443",3766,"26 - 50 Years","Road",null,145.379050999487,-37.8166369993212,18545,9198,"KALORAMA","YARRA RANGES","Grange"
"Grass",null,"Australian Rules Football","Kiloran Park",2,"3. Average","6 - 10 Years","YARRAR11451",3137,"26 - 50 Years","Street","Male, Umpire/Officials",145.310340999574,-37.7931839993269,18561,9199,"KILSYTH","YARRA RANGES","Macmillan"
"Grass",null,"Australian Rules Football","Kilsyth Recreation Reserve",1,"4. Good","1 - 5 Years","YARRAR11445",3137,"26 - 50 Years","Road","Male, Umpire/Officials",145.309517000553,-37.8038499986545,18549,9200,"KILSYTH","YARRA RANGES","Colchester"
"Grass","33","Australian Rules Football","Kimberley Reserve",2,"3. Average","6 - 10 Years","YARRAR11427",3116,"26 - 50 Years","Drive","Male",145.309789000431,-37.7520249989787,18510,9201,"CHIRNSIDE PARK","YARRA RANGES","Kimberley"
"Grass",null,"Australian Rules Football","Lilydale Recreation Reserve",1,"4. Good","1 - 5 Years","YARRAR11457",3140,"26 - 50 Years","Street","Male, Umpire/Officials",145.349190000141,-37.7555079987402,18575,9202,"LILYDALE","YARRA RANGES","Main"
"Grass",null,"Australian Rules Football","Monbulk Reserve",1,"3. Average","1 - 5 Years","YARRAR11465",3793,"26 - 50 Years","Road","Male, Umpire/Officials",145.410421000297,-37.8746259991895,18591,9203,"MONBULK","YARRA RANGES","Moores"
"Grass",null,"Australian Rules Football","Montrose Recreation Reserve",1,"5. Very Good","1 - 5 Years","YARRAR11467",3765,"26 - 50 Years","Road","Male, Umpire/Officials",145.344301999434,-37.8128359992941,18599,9204,"MONTROSE","YARRA RANGES","Mt Dandenong Tourist"
"Grass",null,"Australian Rules Football","Mooroolbark Heights Reserve",1,"4. Good","1 - 5 Years","YARRAR11472",3138,"26 - 50 Years","Avenue","Male, Umpire/Officials",145.325745999451,-37.7927909990461,18610,9205,"MOOROOLBARK","YARRA RANGES","Longfellow"
"Grass",null,"Australian Rules Football","Mount Evelyn Recreation Reserve",1,"3. Average","1 - 5 Years","YARRAR11478",3796,"26 - 50 Years","Road","Male, Umpire/Officials",145.382252000205,-37.7955239992871,18621,9206,"MOUNT EVELYN","YARRA RANGES","Tramway"
"Grass",null,"Australian Rules Football","Mt Lilydale Sports Ovals",1,null,null,"YARRAR11459",3140,null,"Road",null,145.360512999884,-37.7447989990106,18580,9207,"LILYDALE","YARRA RANGES","Quarry"
"Grass",null,"Australian Rules Football","Narre Warren East Reserve",1,"3. Average","6 - 10 Years","YARRAR11479",3804,"26 - 50 Years","Road","Male, Umpire/Officials",145.361632999578,-37.9635269992957,18624,9208,"NARRE WARREN EAST","YARRA RANGES","Berwick"
"Grass",null,"Australian Rules Football","Olinda Recreation Reserve",1,"2. Poor","Upgrade in progress","YARRAR11482",3788,"26 - 50 Years","Road","Male, Umpire/Officials",145.36975600039,-37.8535529987935,18628,9209,"OLINDA","YARRA RANGES","The Georgian"
"Grass",null,"Australian Rules Football","Pinks Reserve",2,"3. Average","1 - 5 Years","YARRAR11449",3137,"26 - 50 Years","Road","Male, Umpire/Officials",145.31925899978,-37.8134849991661,18555,9210,"KILSYTH","YARRA RANGES","Liverpool"
"Grass",null,"Australian Rules Football","Powelltown Reserve",1,"3. Average","1 - 5 Years","YARRAR11483",3797,"26 - 50 Years","Road","Male, Umpire/Officials",145.747704000411,-37.864429998935,18631,9211,"POWELLTOWN","YARRA RANGES","Recreation"
"Grass",null,"Australian Rules Football","Queens Park",1,"3. Average","6 - 10 Years","YARRAR11439",3777,"26 - 50 Years","Road","Male, Umpire/Officials",145.52312100001,-37.6537419986681,18534,9212,"HEALESVILLE","YARRA RANGES","Don"
"Grass",null,"Australian Rules Football","Seville Recreation Reserve",2,"3. Average","< 1 Years","YARRAR11485",3139,"26 - 50 Years","Road","Male, Umpire/Officials",145.461873000365,-37.7801409989492,18635,9213,"SEVILLE","YARRA RANGES","Monbulk-Seville"
"Grass",null,"Australian Rules Football","Silvan Recreation Reserve",1,"4. Good","1 - 5 Years","YARRAR11486",3795,"26 - 50 Years","Road","Male, Umpire/Officials",145.428320999952,-37.8307269988194,18639,9214,"SILVAN","YARRA RANGES","Silvan"
"Grass",null,"Australian Rules Football","Upwey Reserve",2,"2. Poor","1 - 5 Years","YARRAR11489",3158,"26 - 50 Years","Avenue","Male, Umpire/Officials",145.336971000406,-37.9030999992333,18645,9215,"UPWEY","YARRA RANGES","Chosen"
"Grass",null,"Australian Rules Football","Wandin East Recreation Reserve ",null,"4. Good","1 - 5 Years","YARRAR11492",3139,"0 - 5 Years","Road","Unisex",145.458532999892,-37.8153089991026,18657,9216,"WANDIN EAST","YARRA RANGES","Monbulk-Seville"
"Grass",null,"Australian Rules Football","Wandin North Reserve",1,"3. Average","1 - 5 Years","YARRAR11493",3139,"26 - 50 Years","Road","Male, Umpire/Officials",145.430298000084,-37.78246999868,18659,9217,"WANDIN NORTH","YARRA RANGES","Clegg"
"Grass",null,"Australian Rules Football","Warburton Recreation Reserve",1,"4. Good","1 - 5 Years","YARRAR11495",3799,"26 - 50 Years","Hwy","Male, Umpire/Officials",145.69511399961,-37.7515019986903,18663,9218,"WARBURTON","YARRA RANGES","Warburton"
"Grass",null,"Australian Rules Football","Wesburn Recreation Reserve",2,"3. Average","6 - 10 Years","YARRAR11498",3799,"26 - 50 Years","Road","Male, Umpire/Officials",145.64825899954,-37.7722819989691,18669,9219,"WESBURN","YARRA RANGES","Old Warburton"
"Grass",null,"Australian Rules Football","Wickams Road Reserve",1,"3. Average","1 - 5 Years","YARRAR11452",3139,"26 - 50 Years","Road","Male, Umpire/Officials",145.570748000438,-37.788207998787,18567,9220,"LAUCHING PLACE","YARRA RANGES","Wickhams"
"Grass",null,"Australian Rules Football","Woori Yallock Reserve",1,"4. Good","6 - 10 Years","YARRAR11499",3139,"26 - 50 Years","Lane","Male, Umpire/Officials",145.532739999597,-37.7833709991624,18673,9221,"WOORI YALLOCK","YARRA RANGES","Shevlins"
"Grass",null,"Australian Rules Football","Yarra Glen Recreation Reserve",1,"3. Average","Upgrade in progress","YARRAR11503",3775,"26 - 50 Years","Hwy","Male, Umpire/Officials",145.382560999568,-37.6603069989998,18682,9222,"YARRA GLEN","YARRA RANGES","Melba"
"Grass",null,"Australian Rules Football","Yarra Junction Recreation Reserve",1,"4. Good","1 - 5 Years","YARRAR11504",3797,"26 - 50 Years","Road","Male, Umpire/Officials",145.612006000377,-37.7804689988622,18685,9223,"YARRA JUNCTION","YARRA RANGES","Park"
"Wooden Flooring","95","Badminton","Kilsyth Sports Centre",6,"4. Good","N/A","YARRAR11450",3137,"11 - 25 Years","Road","Female, Male",145.31925899978,-37.8134849991661,18559,9224,"KILSYTH","YARRA RANGES","Liverpool"
"Wooden Gymnasium","95","Basketball","Kilsyth Sports Centre",6,"4. Good","Upgrade in progress","YARRAR11450",3137,"11 - 25 Years","Road","Female, Male",145.31925899978,-37.8134849991661,18558,9225,"KILSYTH","YARRA RANGES","Liverpool"
null,null,"BMX","Eastfield BMX Club",null,null,null,"YARRAR5442",null,null,"Road",null,145.306838999807,-37.8120049986931,27696,9226,"KILSYTH","YARRA RANGES","Colchester"
null,"36","BMX","Healesville Skate & BMX",1,"3. Average","N/A","YARRAR11440",3777,"6 - 10 Years","Road",null,145.523706999559,-37.6522159995298,18540,9227,"HEALESVILLE","YARRA RANGES","Don"
"Dirt",null,"BMX","Monbulk Skate & BMX",1,"3. Average","11 + Years","YARRAR11466",3793,"6 - 10 Years","Road",null,145.409214000243,-37.8759889994365,18598,9228,"MONBULK","YARRA RANGES","Moores"
"Synthetic Pitch",null,"Cricket","Baynes Reserve",1,"2. Poor","11 + Years","YARRAR11463",3793,"26 - 50 Years","Road",null,145.401864999856,-37.8761849993801,18588,9229,"MONBULK","YARRA RANGES","Baynes Park"
"Synthetic Pitch","1A","Cricket","Belgrave Recreation Reserve",1,"4. Good",null,"YARRAR11425",3160,"26 - 50 Years","Road","Male, Umpire/Officials",145.344860000315,-37.9157399994145,18506,9230,"BELGRAVE","YARRA RANGES","Reserve"
"Synthetic Pitch","10/12","Cricket","Belgrave South Recreation Reserve",1,"3. Average","1 - 5 Years","YARRAR11426",3160,"26 - 50 Years","Road","Male, Umpire/Officials",145.355946999893,-37.9315359992218,18508,9231,"BELGRAVE SOUTH","YARRA RANGES","Mt Morton"
"Synthetic Pitch",null,"Cricket","Brice Avenue Reserve",1,"3. Average","1 - 5 Years","YARRAR11469",3138,"26 - 50 Years","Avenue",null,145.31830900054,-37.7845479992296,18607,9232,"MOOROOLBARK","YARRA RANGES","Brice"
"Synthetic Pitch","249/263","Cricket","Don Road Sporting Complex",1,"3. Average","1 - 5 Years","YARRAR11438",3777,"26 - 50 Years","Road","Male, Umpire/Officials",145.539657999613,-37.6687859987112,18531,9233,"HEALESVILLE","YARRA RANGES","Don"
"Synthetic Pitch",null,"Cricket","Ernest Lloyd Reserve",1,"2. Poor","N/A","YARRAR11435",3797,"26 - 50 Years","Road",null,145.646884999907,-37.8156849993894,18526,9234,"GLADYSDALE","YARRA RANGES","Little Yarra"
"Concrete Pitch",null,"Cricket","Ferny Creek Reserve",1,null,null,"YARRAR11434",3786,null,"Road",null,145.34579599954,-37.8753459990078,18524,9235,"FERNY CREEK","YARRA RANGES","Clarkmont"
"Synthetic Pitch",null,"Cricket","Gruyere Recreation Reserve",1,"3. Average","6 - 10 Years","YARRAR11436",3770,"26 - 50 Years","Road","Male, Umpire/Officials",145.445083999599,-37.7308449986947,18527,9236,"GRUYERE","YARRA RANGES","Killara"
"Synthetic Pitch",null,"Cricket","Halley Supple Reserve",1,"3. Average","1 - 5 Years","YARRAR11432",3770,"26 - 50 Years","0","Male, Umpire/Officials",145.380213999493,-37.7294849987709,18521,9237,"COLDSTREAM","YARRA RANGES","South Gateway"
"Synthetic Pitch",null,"Cricket","Hoddles Creek Community Reserve",1,"3. Average","6 - 10 Years","YARRAR11442",3139,"26 - 50 Years","Road","Male, Umpire/Officials",145.596279999886,-37.8264759990844,18542,9238,"HODDLES CREEK","YARRA RANGES","Gembrook"
"Synthetic Pitch",null,"Cricket","Ingram Road Reserve",1,"3. Average","6 - 10 Years","YARRAR11431",3770,"26 - 50 Years","Road",null,145.382759000325,-37.7344189990578,18519,9239,"COLDSTREAM","YARRA RANGES","Ingram"
"Synthetic Pitch",null,"Cricket","Kalorama Memorial Reserve",1,"3. Average","11 + Years","YARRAR11443",3766,"26 - 50 Years","Road",null,145.379050999487,-37.8166369993212,18544,9240,"KALORAMA","YARRA RANGES","Grange"
"Synthetic Pitch",null,"Cricket","Keith Hume Fraser Reserve",2,"3. Average","Upgrade in progress","YARRAR11468",3765,"26 - 50 Years","Road","Male, Umpire/Officials",145.355378999668,-37.8033269987257,18603,9241,"MONTROSE","YARRA RANGES","Swansea"
"Synthetic Pitch",null,"Cricket","Kiloran Park",2,"3. Average","6 - 10 Years","YARRAR11451",3137,"26 - 50 Years","Street","Male, Umpire/Officials",145.310340999574,-37.7931839993269,18562,9242,"KILSYTH","YARRA RANGES","Macmillan"
"Synthetic Pitch","33","Cricket","Kimberley Reserve",2,"3. Average","6 - 10 Years","YARRAR11427",3116,"26 - 50 Years","Drive","Male",145.309789000431,-37.7520249989787,18511,9243,"CHIRNSIDE PARK","YARRA RANGES","Kimberley"
"Synthetic Pitch",null,"Cricket","Lilydale Recreation Reserve",2,"4. Good","1 - 5 Years","YARRAR11457",3140,"26 - 50 Years","Street","Male, Umpire/Officials",145.349190000141,-37.7555079987402,18576,9244,"LILYDALE","YARRA RANGES","Main"
"Synthetic Pitch",null,"Cricket","Menzies Creek Reserve",1,"2. Poor","11 + Years","YARRAR11461",3159,"26 - 50 Years","Road","Male, Umpire/Officials",145.393932000169,-37.913166999398,18584,9245,"MENZIES CREEK","YARRA RANGES","Black Hill"
"Synthetic Pitch",null,"Cricket","Millgrove Recreation Reserve  ",1,"3. Average","1 - 5 Years","YARRAR11462",3799,"26 - 50 Years","Cresent","Male, Umpire/Officials",145.64961699978,-37.7536009992033,18586,9246,"MILLGROVE","YARRA RANGES","Moore"
"Synthetic Pitch",null,"Cricket","Monbulk Reserve",1,"3. Average","1 - 5 Years","YARRAR11465",3793,"26 - 50 Years","Road","Male, Umpire/Officials",145.410421000297,-37.8746259991895,18596,9247,"MONBULK","YARRA RANGES","Moores"
"Synthetic Pitch",null,"Cricket","Montrose Recreation Reserve",1,"5. Very Good","1 - 5 Years","YARRAR11467",3765,"26 - 50 Years","Road","Male, Umpire/Officials",145.344301999434,-37.8128359992941,18600,9248,"MONTROSE","YARRA RANGES","Mt Dandenong Tourist"
"Synthetic Pitch",null,"Cricket","Mooroolbark Heights Reserve",1,null,null,"YARRAR11472",3138,"26 - 50 Years","Avenue","Male, Umpire/Officials",145.325745999451,-37.7927909990461,18611,9249,"MOOROOLBARK","YARRA RANGES","Longfellow"
null,"14","Fitness / Gymnasium Workouts","Goodlife Mooroolbark",1,null,null,"YARRAR11473",3138,null,"Road",null,145.311060999442,-37.7880679987138,18612,9286,"MOOROOLBARK","YARRA RANGES","Manchester"
"Synthetic Pitch",null,"Cricket","Morrison Reserve",1,"3. Average","1 - 5 Years","YARRAR11476",3796,"26 - 50 Years","Road","Male, Umpire/Officials",145.386234999633,-37.7734509994703,18616,9250,"MOUNT EVELYN","YARRA RANGES","Old Hereford"
"Synthetic Pitch",null,"Cricket","Mount Evelyn Recreation Reserve",2,"3. Average","1 - 5 Years","YARRAR11478",3796,"26 - 50 Years","Road","Male, Umpire/Officials",145.382252000205,-37.7955239992871,18622,9251,"MOUNT EVELYN","YARRA RANGES","Tramway"
"Synthetic Pitch",null,"Cricket","Narre Warren East Reserve",1,"3. Average","6 - 10 Years","YARRAR11479",3804,"26 - 50 Years","Road","Male, Umpire/Officials",145.361632999578,-37.9635269992957,18625,9253,"NARRE WARREN EAST","YARRA RANGES","Berwick"
"Synthetic Pitch",null,"Cricket","Olinda Recreation Reserve",1,"2. Poor","Upgrade in progress","YARRAR11482",3788,"26 - 50 Years","Road","Male, Umpire/Officials",145.36975600039,-37.8535529987935,18629,9254,"OLINDA","YARRA RANGES","The Georgian"
"Synthetic Pitch",null,"Cricket","Pinks Reserve",2,"3. Average","1 - 5 Years","YARRAR11449",3137,"26 - 50 Years","Road","Male, Umpire/Officials",145.31925899978,-37.8134849991661,18556,9255,"KILSYTH","YARRA RANGES","Liverpool"
"Synthetic Pitch",null,"Cricket","Powelltown Reserve",1,"3. Average","1 - 5 Years","YARRAR11483",3797,"26 - 50 Years","Road","Male, Umpire/Officials",145.747704000411,-37.864429998935,18632,9256,"POWELLTOWN","YARRA RANGES","Recreation"
"Synthetic Pitch",null,"Cricket","Queens Park",1,"3. Average","6 - 10 Years","YARRAR11439",3777,"26 - 50 Years","Road","Male, Umpire/Officials",145.52312100001,-37.6537419986681,18535,9257,"HEALESVILLE","YARRA RANGES","Don"
"Synthetic Pitch",null,"Cricket","Seville Recreation Reserve",2,"3. Average","< 1 Years","YARRAR11485",3139,"26 - 50 Years","Road","Male, Umpire/Officials",145.461873000365,-37.7801409989492,18636,9258,"SEVILLE","YARRA RANGES","Monbulk-Seville"
"Synthetic Pitch",null,"Cricket","Sheep Station Creek Reserve",1,"2. Poor","11 + Years","YARRAR11506",3139,"26 - 50 Years","Road",null,145.52454799963,-37.8044719986959,18691,9259,"YELLINGBO","YARRA RANGES","Healsville Koo Wee Rup"
"Synthetic Pitch",null,"Cricket","Silvan Recreation Reserve",1,"4. Good","1 - 5 Years","YARRAR11486",3795,"26 - 50 Years","Road","Male, Umpire/Officials",145.428320999952,-37.8307269988194,18640,9260,"SILVAN","YARRA RANGES","Silvan"
"Synthetic Pitch",null,"Cricket","Upwey Reserve",2,"2. Poor","1 - 5 Years","YARRAR11489",3158,"26 - 50 Years","Avenue","Male, Umpire/Officials",145.336971000406,-37.9030999992333,18646,9261,"UPWEY","YARRA RANGES","Chosen"
"Synthetic Pitch",null,"Cricket","Wandin East Recreation Reserve ",1,"4. Good","1 - 5 Years","YARRAR11492",3139,"0 - 5 Years","Road","Unisex",145.458532999892,-37.8153089991026,18655,9262,"WANDIN EAST","YARRA RANGES","Monbulk-Seville"
"Synthetic Pitch",null,"Cricket","Wandin North Reserve",1,"3. Average","1 - 5 Years","YARRAR11493",3139,"26 - 50 Years","Road","Male, Umpire/Officials",145.430298000084,-37.78246999868,18660,9263,"WANDIN NORTH","YARRA RANGES","Clegg"
"Synthetic Pitch",null,"Cricket","Warburton Recreation Reserve",1,"4. Good","1 - 5 Years","YARRAR11495",3799,"26 - 50 Years","Hwy","Male, Umpire/Officials",145.69511399961,-37.7515019986903,18664,9264,"WARBURTON","YARRA RANGES","Warburton"
"Synthetic Pitch",null,"Cricket","Wesburn Recreation Reserve",2,"3. Average","6 - 10 Years","YARRAR11498",3799,"26 - 50 Years","Road","Male, Umpire/Officials",145.64825899954,-37.7722819989691,18670,9265,"WESBURN","YARRA RANGES","Old Warburton"
"Synthetic Pitch",null,"Cricket","Wickams Road Reserve",1,"3. Average","1 - 5 Years","YARRAR11452",3139,"26 - 50 Years","Road","Male, Umpire/Officials",145.570748000438,-37.788207998787,18565,9266,"LAUCHING PLACE","YARRA RANGES","Wickhams"
"Synthetic Pitch",null,"Cricket","Woori Yallock Reserve",1,"4. Good","1 - 5 Years","YARRAR11499",3139,"26 - 50 Years","Lane","Male, Umpire/Officials",145.532739999597,-37.7833709991624,18674,9267,"WOORI YALLOCK","YARRA RANGES","Shevlins"
"Synthetic Pitch",null,"Cricket","Yarra Glen Recreation Reserve",2,"3. Average","Upgrade in progress","YARRAR11503",3775,"26 - 50 Years","Hwy","Male, Umpire/Officials",145.382560999568,-37.6603069989998,18683,9268,"YARRA GLEN","YARRA RANGES","Melba"
"Synthetic Pitch",null,"Cricket","Yarra Junction Recreation Reserve",1,"4. Good","1 - 5 Years","YARRAR11504",3797,"26 - 50 Years","Road","Male, Umpire/Officials",145.612006000377,-37.7804689988622,18686,9269,"YARRA JUNCTION","YARRA RANGES","Park"
null,null,"Cycling","Lysterfield Park",null,null,null,"YARRAR5421",null,null,null,null,145.301055999766,-37.9700489993961,27677,9270,null,"CASEY",null
null,null,"Equestrian","Bell Road Reserve",null,null,null,"YARRAR11400",3139,null,"Road",null,145.460181000536,-37.7798869991762,26992,9271,"SEVILLE","YARRA RANGES","Bell"
null,null,"Equestrian","Don Road Sports Complex",null,null,null,"YARRAR11394",3777,null,"Road",null,145.567063999947,-37.6965959994717,26986,9272,"HEALESVILLE","YARRA RANGES","Don"
null,null,"Equestrian","Doongala Reserve",null,null,null,"YARRAR11393",3765,null,"Road",null,145.334174000561,-37.8296139989928,26985,9273,"MONTROSE","YARRA RANGES","Sheffield South"
null,null,"Equestrian","Graeme Collings Reserve",null,null,null,"YARRAR11399",3796,null,"Road",null,145.404346999862,-37.7805239994036,26991,9274,"MOUNT EVELYN","YARRA RANGES","Bailey"
null,null,"Equestrian","Lloyd Park",null,null,null,"YARRAR11392",3160,null,"Road",null,145.348947999597,-37.9535079991106,26984,9275,"BELGRAVE SOUTH","YARRA RANGES","Belgrave"
null,null,"Equestrian","Macclesfield Reserve",null,null,null,"YARRAR11396",3782,null,"Road",null,145.491043000183,-37.889022998964,26988,9276,"MACCLESFIELD","YARRA RANGES","Kennedy"
null,null,"Equestrian","Wards Road Reserve",null,null,null,"YARRAR11397",3793,null,"Road",null,145.445400000336,-37.878430998921,26989,9277,"MONBULK","YARRA RANGES","Wards"
null,null,"Equestrian","Wesburn Recreation Reserve",null,"3. Average","1 - 5 Years","YARRAR11498",3799,"11 - 25 Years","Road",null,145.64825899954,-37.7722819989691,18672,9278,"WESBURN","YARRA RANGES","Old Warburton"
null,"28","Equestrian","Yarra Glen & Lilydale Hunt Club",null,null,null,"YARRAR11395",3770,null,"Highway",null,145.38992199992,-37.7023939988753,26987,9279,"YERING","YARRA RANGES","Melba"
null,null,"Equestrian","Yarra Glen Club Grounds",null,null,null,"YARRAR11401",3775,null,"Road",null,145.35476299978,-37.6701289991794,26993,9280,"YARRA GLEN","YARRA RANGES","Yarraview"
null,"36","Fitness / Gymnasium Workouts","Curves  Lilydale",1,null,null,"YARRAR11456",3140,null,"Drive",null,145.349077000099,-37.7483299989101,18574,9281,"LILYDALE","YARRA RANGES","Industrial Park"
null,"12/14","Fitness / Gymnasium Workouts","Curves Kilsyth",1,null,null,"YARRAR11447",3137,null,"Place",null,145.316372000003,-37.8026769994786,18553,9282,"KILSYTH","YARRA RANGES","Collins"
null,"286","Fitness / Gymnasium Workouts","Female Gym Chirnside Park",1,null,null,"YARRAR11430",3116,null,"Hwy",null,145.302566000374,-37.7672719993155,18517,9283,"CHIRNSIDE PARK","YARRA RANGES","Maroondah"
null,"282","Fitness / Gymnasium Workouts","Fit Chirnside park",1,null,null,"YARRAR11429",3116,null,"Hwy",null,145.305667000133,-37.7663569991753,18516,9284,"CHIRNSIDE PARK","YARRA RANGES","Maroondah"
null,"17","Fitness / Gymnasium Workouts","Fit Gym",1,null,null,"YARRAR11477",3796,null,"Crescent",null,145.378828999964,-37.7863069986453,18620,9285,"MOUNT EVELYN","YARRA RANGES","Wray"
null,"33","Fitness / Gymnasium Workouts","Jetts Fitness Lilydale",1,null,null,"YARRAR11455",3140,null,"Street",null,145.347594999797,-37.760039998815,18573,9287,"LILYDALE","YARRA RANGES","Hutchinson"
null,"446","Fitness / Gymnasium Workouts","Lilydale Squash & Fitness Centre",1,null,null,"YARRAR11458",3140,null,"Hwy",null,145.361078999913,-37.7562199991843,18578,9288,"LILYDALE","YARRA RANGES","Maroondah"
null,"82","Fitness / Gymnasium Workouts","Ranges Fitness",1,null,null,"YARRAR11491",3158,null,"Street",null,145.332663000549,-37.9052129992207,18654,9290,"UPWEY","YARRA RANGES","Main"
null,"255","Fitness / Gymnasium Workouts","Spartans Gym & Fitness",1,null,null,"YARRAR11446",3137,null,"Road",null,145.304416000447,-37.8235469987468,18552,9291,"KILSYTH","MAROONDAH","Colchester"
null,"2435","Fitness / Gymnasium Workouts","Yarra Centre",null,"4. Good","1 - 5 Years","YARRAR11507",3797,"11 - 25 Years","Highway","Female, Male",145.610870999805,-37.7809189987235,18693,9292,"YARRA JUNCTION","YARRA RANGES","Warburton"
"18 Hole Course - Private",null,"Golf","Chirnside Park Country Club",1,null,null,"YARRAR11428",3116,null,"Drive",null,145.32589399972,-37.7505429991675,18512,9293,"CHIRNSIDE PARK","YARRA RANGES","Kingswood"
"18 Hole Course - Private",null,"Golf","Croyden Golf Club",1,null,null,"YARRAR11433",3136,null,"Road",null,145.354348999975,-37.6923479987807,18523,9294,"CROYDEN","YARRA RANGES","Victoria"
"18 Hole Course - Public",null,"Golf","Healsville Golf Club",1,null,null,"YARRAR11437",3777,null,"Road",null,145.502063000378,-37.6499249987606,18529,9295,"HEALESVILLE","YARRA RANGES","Chum Creek"
"18 Hole Course - Public",null,"Golf","Olinda Golf Course",1,null,null,"YARRAR11480",3788,null,"Road",null,145.372309000273,-37.853586999371,18626,9296,"OLINDA","YARRA RANGES","Olinda-Monbulk"
"9 Hole Course - Public",null,"Golf","Warburton Golf Club",1,"4. Good","11 + Years","YARRAR11494",3799,"26 - 50 Years","Road","Female, Male",145.679246000438,-37.7527529992966,18662,9297,"WARBURTON","YARRA RANGES","Dammans"
null,"155","Gymnastics","Glitz Gymnastics Academy",null,null,null,"YARRAR5214",3140,null,"Road",null,145.336582000061,-37.7496769988416,27296,9298,"LILYDALE","YARRA RANGES","Beresford"
"Grass",null,"Lawn Bowls","Chirnside Park Country Club",2,null,null,"YARRAR11428",3116,null,"Drive",null,145.32589399972,-37.7505429991675,18513,9299,"CHIRNSIDE PARK","YARRA RANGES","Kingswood"
"Grass",null,"Lawn Bowls","Healsville Bowls Club",2,"2. Poor","1 - 5 Years","YARRAR11441",3777,"26 - 50 Years","Street","Female, Male",145.514445000404,-37.6529359993007,18541,9300,"HEALESVILLE","YARRA RANGES","River"
"Grass",null,"Lawn Bowls","Kiloran Park",3,"3. Average","6 - 10 Years","YARRAR11451",3137,"26 - 50 Years","Street",null,145.310340999574,-37.7931839993269,18563,9301,"KILSYTH","YARRA RANGES","Macmillan"
"Grass",null,"Lawn Bowls","Lilydale Bowls and Tennis Club",3,null,null,"YARRAR11453",3140,null,"Road",null,145.352204999445,-37.7601219994126,18569,9302,"LILYDALE","YARRA RANGES","Andersons"
"Artificial Turf",null,"Lawn Bowls","Monbulk Reserve",2,"4. Good","1 - 5 Years","YARRAR11465",3793,"26 - 50 Years","Road","Female, Male",145.410421000297,-37.8746259991895,18592,9303,"MONBULK","YARRA RANGES","Moores"
"Grass",null,"Lawn Bowls","Upwey Reserve",2,"4. Good","1 - 5 Years","YARRAR11489",3158,"26 - 50 Years","Avenue","Female, Male",145.336971000406,-37.9030999992333,18651,9304,"UPWEY","YARRA RANGES","Chosen"
"Grass",null,"Lawn Bowls","Warburton Recreation Reserve",2,"4. Good","Upgrade in progress","YARRAR11495",3799,"26 - 50 Years","Hwy","Female, Male",145.69511399961,-37.7515019986903,18665,9305,"WARBURTON","YARRA RANGES","Warburton"
"Grass",null,"Lawn Bowls","Yarra Glen Bowls Club",1,"3. Average","Upgrade in progress","YARRAR11502",3775,"26 - 50 Years","Close","Female, Male",145.372196999698,-37.6549909987591,18681,9306,"YARRA GLEN","YARRA RANGES","Helen"
"Grass",null,"Lawn Bowls","Yarra Junction Recreation Reserve",2,"3. Average","1 - 5 Years","YARRAR11504",3797,"26 - 50 Years","Road","Female, Male",145.612006000377,-37.7804689988622,18687,9307,"YARRA JUNCTION","YARRA RANGES","Park"
null,null,"Motor Sports","Lilydale Bowls and Tennis Club",1,"4. Good","Upgrade in progress","YARRAR11453",3140,"11 - 25 Years","Road",null,145.352204999445,-37.7601219994126,18568,9308,"LILYDALE","YARRA RANGES","Andersons"
"Asphalt","10/12","Netball","Belgrave South Recreation Reserve",4,"3. Average","N/A","YARRAR11426",3160,"26 - 50 Years","Road","Female",145.355946999893,-37.9315359992218,18509,9309,"BELGRAVE SOUTH","YARRA RANGES","Mt Morton"
"Asphalt",null,"Netball","McDermott Avenue Reserve",10,"2. Poor","N/A","YARRAR11474",3138,"26 - 50 Years","Avenue","Female, Male",145.317567999926,-37.7767519995281,18613,9310,"MOOROOLBARK","YARRA RANGES","McDermott"
"Asphalt",null,"Netball","Monbulk Reserve",4,"3. Average","6 - 10 Years","YARRAR11465",3793,"26 - 50 Years","Road",null,145.410421000297,-37.8746259991895,18593,9311,"MONBULK","YARRA RANGES","Moores"
"Asphalt",null,"Netball","Montrose Recreation Reserve",2,"4. Good","6 - 10 Years","YARRAR11467",3765,"6 - 10 Years","Road",null,145.344301999434,-37.8128359992941,18601,9312,"MONTROSE","YARRA RANGES","Mt Dandenong Tourist"
"Asphalt",null,"Netball","Morrison Reserve",4,"4. Good","11 + Years","YARRAR11476",3796,"6 - 10 Years","Road","Female",145.386234999633,-37.7734509994703,18617,9313,"MOUNT EVELYN","YARRA RANGES","Old Hereford"
"Asphalt",null,"Netball","Mount Evelyn Recreation Reserve",1,"4. Good","1 - 5 Years","YARRAR11478",3796,"0 - 5 Years","Road",null,145.382252000205,-37.7955239992871,18623,9314,"MOUNT EVELYN","YARRA RANGES","Tramway"
"Asphalt",null,"Netball","Olinda Recreation Reserve",1,"4. Good","Upgrade in progress","YARRAR11482",3788,"0 - 5 Years","Road",null,145.36975600039,-37.8535529987935,18630,9315,"OLINDA","YARRA RANGES","The Georgian"
"Asphalt",null,"Netball","Powelltown Reserve",1,"3. Average","1 - 5 Years","YARRAR11483",3797,"26 - 50 Years","Road","Male",145.747704000411,-37.864429998935,18633,9316,"POWELLTOWN","YARRA RANGES","Recreation"
"Asphalt",null,"Netball","Seville Recreation Reserve",1,null,null,"YARRAR11485",3139,null,"Road",null,145.461873000365,-37.7801409989492,18637,9317,"SEVILLE","YARRA RANGES","Monbulk-Seville"
"Asphalt",null,"Netball","Silvan Recreation Reserve",1,"2. Poor","6 - 10 Years","YARRAR11486",3795,"26 - 50 Years","Road",null,145.428320999952,-37.8307269988194,18641,9318,"SILVAN","YARRA RANGES","Silvan"
"Asphalt",null,"Netball","Upwey South Reserve",3,"2. Poor","1 - 5 Years","YARRAR11488",3158,"11 - 25 Years","Street",null,145.326916000491,-37.9164849990045,18643,9319,"UPWEY","YARRA RANGES","Brookside"
"Asphalt",null,"Netball","Wandin North Reserve",1,"5. Very Good","11 + Years","YARRAR11493",3139,"0 - 5 Years","Road","Female, Umpire/Officials",145.430298000084,-37.78246999868,18661,9320,"WANDIN NORTH","YARRA RANGES","Clegg"
null,null,"Netball","Warburton Recreation Reserve",null,"5. Very Good","11 + Years","YARRAR11495",3799,"0 - 5 Years","Hwy","Female",145.69511399961,-37.7515019986903,18666,9321,"WARBURTON","YARRA RANGES","Warburton"
"Asphalt",null,"Netball","Wesburn Recreation Reserve",4,"2. Poor","1 - 5 Years","YARRAR11498",3799,"26 - 50 Years","Road","Female",145.64825899954,-37.7722819989691,18671,9322,"WESBURN","YARRA RANGES","Old Warburton"
"Asphalt",null,"Netball","Woori Yallock Reserve",1,"2. Poor","< 1 Years","YARRAR11499",3139,"6 - 10 Years","Lane",null,145.532739999597,-37.7833709991624,18675,9323,"WOORI YALLOCK","YARRA RANGES","Shevlins"
"Asphalt",null,"Netball","Yarra Glen Recreation Reserve",1,"4. Good","Upgrade in progress","YARRAR11503",3775,"0 - 5 Years","Hwy",null,145.382560999568,-37.6603069989998,18684,9324,"YARRA GLEN","YARRA RANGES","Melba"
"Asphalt",null,"Netball","Yarra Junction Recreation Reserve",1,"4. Good","6 - 10 Years","YARRAR11504",3797,"0 - 5 Years","Road","Female",145.612006000377,-37.7804689988622,18689,9325,"YARRA JUNCTION","YARRA RANGES","Park"
"Synthetic",null,"Netball","Lara Reserve",2,null,null,"GREATE11087",3212,null,"Avenue",null,144.412987000476,-38.0201279990739,22881,3314,"LARA","GREATER GEELONG","Alkara"
null,"2435","Netball (Indoor)","Yarra Centre",2,"4. Good","1 - 5 Years","YARRAR11507",3797,"11 - 25 Years","Highway","Female, Male",145.610870999805,-37.7809189987235,18694,9326,"YARRA JUNCTION","YARRA RANGES","Warburton"
null,null,"Sailing","Lysterfield Sailing Club Inc",null,null,null,"YARRAR11286",3156,null,"Road",null,145.300758999772,-37.9654399988074,26983,9327,"LYSTERFIELD","YARRA RANGES","Horswood"
null,null,"Shooting Sports","Mountain District Pistol Club",null,null,null,"YARRAR11193",3775,null,"Lane",null,145.396257999659,-37.5899479991153,27284,9328,"DIXONS CREEK","YARRA RANGES","Pinnacle"
null,null,"Shooting Sports","Yarra Pistol Club",1,null,null,"YARRAR11460",3156,null,"Road",null,145.315011999787,-37.9430049991977,18583,9329,"LYSTERFIELD","YARRA RANGES","Wellington"
null,"36","Skating","Healesville Skate & BMX",1,"2. Poor","Upgrade in progress","YARRAR11440",3777,"11 - 25 Years","Road",null,145.523706999559,-37.6522159995298,18539,9330,"HEALESVILLE","YARRA RANGES","Don"
"Cement (Hard Court)",null,"Skating","Lilydale Skate Park",1,"4. Good","11 + Years","YARRAR11454",3140,"6 - 10 Years","Street",null,145.350899999835,-37.7590199987018,18572,9331,"LILYDALE","YARRA RANGES","Hardy"
"Concrete Pitch",null,"Skating","Monbulk Skate & BMX",1,"3. Average","11 + Years","YARRAR11466",3793,"6 - 10 Years","Road",null,145.409214000243,-37.8759889994365,18597,9332,"MONBULK","YARRA RANGES","Moores"
"Concrete Pitch",null,"Skating","Mt Evelyn Skate Park",1,"4. Good","< 1 Years","YARRAR11475",3796,"0 - 5 Years","Parade",null,145.379186000043,-37.784311998751,18614,9333,"MOUNT EVELYN","YARRA RANGES","Gardner"
null,"6","Skating","Upwey Skate Park",1,"3. Average","6 - 10 Years","YARRAR11490",3158,"6 - 10 Years","Street",null,145.331364000386,-37.9043309993507,18653,9334,"UPWEY","YARRA RANGES","Mahony"
null,"14","Skating","Yarra Glen Skate Park",1,"3. Average","11 + Years","YARRAR11501",3775,"6 - 10 Years","Avenue",null,145.371003000232,-37.6560289988353,18680,9335,"YARRA GLEN","YARRA RANGES","Anzac"
"Asphalt","2451","Skating","Yarra Junction Skate Park",1,"4. Good","11 + Years","YARRAR11505",3797,"6 - 10 Years","Hwy",null,145.596971999455,-37.7758409988072,18690,9336,"YARRA JUNCTION","YARRA RANGES","Warburton"
"Grass",null,"Soccer","Baynes Reserve",1,"2. Poor","11 + Years","YARRAR11463",3793,"26 - 50 Years","Road",null,145.401864999856,-37.8761849993801,18589,9337,"MONBULK","YARRA RANGES","Baynes Park"
"Grass","249/263","Soccer","Don Road Sporting Complex",1,"2. Poor","1 - 5 Years","YARRAR11438",3777,"26 - 50 Years","Road","Male, Umpire/Officials",145.539657999613,-37.6687859987112,18533,9338,"HEALESVILLE","YARRA RANGES","Don"
"Grass",null,"Soccer","Esther Park",3,"4. Good","1 - 5 Years","YARRAR11471",3138,"26 - 50 Years","Cresent","Male, Umpire/Officials",145.307144000365,-37.7798079986959,18609,9339,"MOOROOLBARK","YARRA RANGES","esther"
"Grass",null,"Soccer","Kalorama Memorial Reserve",1,"2. Poor","11 + Years","YARRAR11443",3766,"26 - 50 Years","Road",null,145.379050999487,-37.8166369993212,18546,9340,"KALORAMA","YARRA RANGES","Grange"
"Grass",null,"Soccer","Keith Hume Fraser Reserve",2,"2. Poor","Upgrade in progress","YARRAR11468",3765,"26 - 50 Years","Road","Male, Umpire/Officials",145.355378999668,-37.8033269987257,18604,9341,"MONTROSE","YARRA RANGES","Swansea"
"Grass",null,"Soccer","Menzies Creek Reserve",2,"2. Poor","11 + Years","YARRAR11461",3159,"26 - 50 Years","Road","Male, Umpire/Officials",145.393932000169,-37.913166999398,18585,9342,"MENZIES CREEK","YARRA RANGES","Black Hill"
null,null,"Soccer","Millgrove Recreation Reserve  ",2,"3. Average","1 - 5 Years","YARRAR11462",3799,"26 - 50 Years","Cresent","Male, Umpire/Officials",145.64961699978,-37.7536009992033,18587,9343,"MILLGROVE","YARRA RANGES","Moore"
"Artificial Turf",null,"Soccer","Monbulk Reserve",1,"4. Good","N/A","YARRAR11465",3793,"26 - 50 Years","Road","Male, Umpire/Officials",145.410421000297,-37.8746259991895,18594,9344,"MONBULK","YARRA RANGES","Moores"
"Grass",null,"Soccer","Morrison Reserve",3,"4. Good","Upgrade in progress","YARRAR11476",3796,"26 - 50 Years","Road","Male, Umpire/Officials",145.386234999633,-37.7734509994703,18618,9345,"MOUNT EVELYN","YARRA RANGES","Old Hereford"
"Grass",null,"Soccer","Mt Lilydale Sports Ovals",1,null,null,"YARRAR11459",3140,null,"Road",null,145.360512999884,-37.7447989990106,18582,9346,"LILYDALE","YARRA RANGES","Quarry"
"Grass",null,"Soccer","Queens Park",1,"2. Poor","N/A","YARRAR11439",3777,"26 - 50 Years","Road",null,145.52312100001,-37.6537419986681,18536,9347,"HEALESVILLE","YARRA RANGES","Don"
"Grass",null,"Soccer","Wandin East Recreation Reserve ",null,"4. Good","1 - 5 Years","YARRAR11492",3139,"0 - 5 Years","Road","Unisex",145.458532999892,-37.8153089991026,18658,9348,"WANDIN EAST","YARRA RANGES","Monbulk-Seville"
"Grass",null,"Softball","Pinks Reserve",1,"4. Good","6 - 10 Years","YARRAR11449",3137,"11 - 25 Years","Road",null,145.31925899978,-37.8134849991661,18557,9349,"KILSYTH","YARRA RANGES","Liverpool"
null,"446","Squash / Racquetball","Lilydale Squash & Fitness Centre",1,null,null,"YARRAR11458",3140,null,"Hwy",null,145.361078999913,-37.7562199991843,18579,9350,"LILYDALE","YARRA RANGES","Maroondah"
"30m Pool - Outdoor, Toddlers Pool","69","Swimming","Belgrave Swimming Pool & Tennis Club",1,"4. Good","1 - 5 Years","YARRAR11424",3160,"11 - 25 Years","Street","Female, Male",145.353984000241,-37.9140079987716,18503,9351,"BELGRAVE","YARRA RANGES","Best"
"25m Pool - Outdoor, 50m Pool - Indoor, Program Pool, Recreation / Play Water Space, Toddlers Pool",null,"Swimming","Kilsyth Centenary Swimming Centre",6,"3. Average","6 - 10 Years","YARRAR11448",3137,"26 - 50 Years","Road","Female, Male",145.310340999574,-37.7931839993269,18554,9352,"KILSYTH","YARRA RANGES","Hawthory"
null,null,"Swimming","Lilydale Recreation Reserve",1,"2. Poor","1 - 5 Years","YARRAR11457",3140,"26 - 50 Years","Street","Male, Umpire/Officials",145.349190000141,-37.7555079987402,18577,9353,"LILYDALE","YARRA RANGES","Main"
"25m Pool - Indoor, Childrens Learning Pool","26","Swimming","Monbulk Aquatic Centre",1,"2. Poor","Upgrade in progress","YARRAR11464",3793,"26 - 50 Years","Road","Female, Male",145.399804999465,-37.8768569993213,18590,9354,"MONBULK","YARRA RANGES","Baynes Park"
"25m Pool - Outdoor, Toddlers Pool","81","Swimming","Olinda Outdoor Pool",2,"1. Very Poor","6 - 10 Years","YARRAR11481",3788,"26 - 50 Years","Road","Female, Male",145.373700000437,-37.8554809994893,18627,9355,"OLINDA","YARRA RANGES","Olinda-Monbulk"
null,null,"Swimming","Queens Park",3,"3. Average","6 - 10 Years","YARRAR11439",3777,"26 - 50 Years","Road","Female, Male",145.52312100001,-37.6537419986681,18537,9356,"HEALESVILLE","YARRA RANGES","Don"
"25m Pool - Indoor, Rehabilitation Pool, Toddlers Pool","2435","Swimming","Yarra Centre",null,"5. Very Good","< 1 Years","YARRAR11507",3797,"6 - 10 Years","Highway","Female, Male",145.610870999805,-37.7809189987235,18692,9357,"YARRA JUNCTION","YARRA RANGES","Warburton"
null,null,"Cycling","Officer Scout Park",null,null,null,"CARDIN5434",null,null,null,null,145.409022999655,-38.0390839992992,27689,1828,null,"CARDINIA",null
"Wooden Flooring","95","Table Tennis","Kilsyth Sports Centre",100,"4. Good","N/A","YARRAR11450",3137,"11 - 25 Years","Road","Female, Male",145.31925899978,-37.8134849991661,18560,9358,"KILSYTH","YARRA RANGES","Liverpool"
"Hard Court","69","Tennis (Outdoor)","Belgrave Swimming Pool & Tennis Club",4,"4. Good","1 - 5 Years","YARRAR11424",3160,"11 - 25 Years","Street",null,145.353984000241,-37.9140079987716,18504,9359,"BELGRAVE","YARRA RANGES","Best"
"Artificial Turf",null,"Tennis (Outdoor)","Chirnside Park Country Club",2,null,null,"YARRAR11428",3116,null,"Drive",null,145.32589399972,-37.7505429991675,18515,9360,"CHIRNSIDE PARK","YARRA RANGES","Kingswood"
"Hard Court",null,"Tennis (Outdoor)","Chirnside Park Country Club",4,null,null,"YARRAR11428",3116,null,"Drive",null,145.32589399972,-37.7505429991675,18514,9361,"CHIRNSIDE PARK","YARRA RANGES","Kingswood"
"Clay","249/263","Tennis (Outdoor)","Don Road Sporting Complex",4,"2. Poor","N/A","YARRAR11438",3777,"26 - 50 Years","Road",null,145.539657999613,-37.6687859987112,18532,9362,"HEALESVILLE","YARRA RANGES","Don"
"Clay",null,"Tennis (Outdoor)","Ferny Creek Reserve",7,null,null,"YARRAR11434",3786,null,"Road",null,145.34579599954,-37.8753459990078,18525,9363,"FERNY CREEK","YARRA RANGES","Clarkmont"
"Asphalt",null,"Tennis (Outdoor)","Gruyere Recreation Reserve",2,"2. Poor","6 - 10 Years","YARRAR11436",3770,"26 - 50 Years","Road",null,145.445083999599,-37.7308449986947,18528,9364,"GRUYERE","YARRA RANGES","Killara"
"Clay",null,"Tennis (Outdoor)","Halley Supple Reserve",4,"3. Average","1 - 5 Years","YARRAR11432",3770,"26 - 50 Years","0","Female",145.380213999493,-37.7294849987709,18522,9365,"COLDSTREAM","YARRA RANGES","South Gateway"
"Artificial Turf",null,"Tennis (Outdoor)","Hoddles Creek Community Reserve",2,"2. Poor","N/A","YARRAR11442",3139,"26 - 50 Years","Road","Female",145.596279999886,-37.8264759990844,18543,9366,"HODDLES CREEK","YARRA RANGES","Gembrook"
"Clay",null,"Tennis (Outdoor)","Kalorama Memorial Reserve",3,"3. Average","11 + Years","YARRAR11443",3766,"26 - 50 Years","Road",null,145.379050999487,-37.8166369993212,18547,9367,"KALORAMA","YARRA RANGES","Grange"
"Hard Court",null,"Tennis (Outdoor)","Keith Hume Fraser Reserve",5,"3. Average","N/A","YARRAR11468",3765,"26 - 50 Years","Road",null,145.355378999668,-37.8033269987257,18605,9368,"MONTROSE","YARRA RANGES","Swansea"
"Hard Court",null,"Tennis (Outdoor)","Kiloran Park",8,"3. Average","6 - 10 Years","YARRAR11451",3137,"26 - 50 Years","Street",null,145.310340999574,-37.7931839993269,18564,9369,"KILSYTH","YARRA RANGES","Macmillan"
"Hard Court",null,"Tennis (Outdoor)","Kilsyth Recreation Reserve",2,"3. Average","11 + Years","YARRAR11445",3137,"26 - 50 Years","Road",null,145.309517000553,-37.8038499986545,18551,9370,"KILSYTH","YARRA RANGES","Colchester"
"Artificial Turf, Clay",null,"Tennis (Outdoor)","Kilsyth Recreation Reserve",5,"3. Average","11 + Years","YARRAR11445",3137,"26 - 50 Years","Road",null,145.309517000553,-37.8038499986545,18550,9371,"KILSYTH","YARRA RANGES","Colchester"
"Artificial Turf",null,"Tennis (Outdoor)","Lilydale Bowls and Tennis Club",4,"4. Good","11 + Years","YARRAR11453",3140,"11 - 25 Years","Road",null,145.352204999445,-37.7601219994126,18571,9372,"LILYDALE","YARRA RANGES","Andersons"
"Asphalt",null,"Tennis (Outdoor)","Lilydale Bowls and Tennis Club",4,"4. Good","11 + Years","YARRAR11453",3140,"11 - 25 Years","Road",null,145.352204999445,-37.7601219994126,18570,9373,"LILYDALE","YARRA RANGES","Andersons"
"Clay, Hard Court",null,"Tennis (Outdoor)","Monbulk Reserve",4,"4. Good","6 - 10 Years","YARRAR11465",3793,"26 - 50 Years","Road",null,145.410421000297,-37.8746259991895,18595,9375,"MONBULK","YARRA RANGES","Moores"
"Hard Court",null,"Tennis (Outdoor)","Montrose Recreation Reserve",6,"4. Good","6 - 10 Years","YARRAR11467",3765,"26 - 50 Years","Road",null,145.344301999434,-37.8128359992941,18602,9376,"MONTROSE","YARRA RANGES","Mt Dandenong Tourist"
null,null,"Tennis (Outdoor)","Morrison Reserve",null,"4. Good","11 + Years","YARRAR11476",3796,"6 - 10 Years","Road","Female",145.386234999633,-37.7734509994703,18619,9377,"MOUNT EVELYN","YARRA RANGES","Old Hereford"
"Artificial Turf",null,"Tennis (Outdoor)","Queens Park",6,"5. Very Good","< 1 Years","YARRAR11439",3777,"26 - 50 Years","Road","Female",145.52312100001,-37.6537419986681,18538,9378,"HEALESVILLE","YARRA RANGES","Don"
"Artificial Turf",null,"Tennis (Outdoor)","Seville Recreation Reserve",6,"3. Average","1 - 5 Years","YARRAR11485",3139,"11 - 25 Years","Road","Female",145.461873000365,-37.7801409989492,18638,9379,"SEVILLE","YARRA RANGES","Monbulk-Seville"
"Hard Court",null,"Tennis (Outdoor)","Upwey Reserve",5,"3. Average","1 - 5 Years","YARRAR11489",3158,"26 - 50 Years","Avenue",null,145.336971000406,-37.9030999992333,18652,9380,"UPWEY","YARRA RANGES","Chosen"
"Hard Court",null,"Tennis (Outdoor)","Upwey South Reserve",6,"3. Average","6 - 10 Years","YARRAR11488",3158,"26 - 50 Years","Street",null,145.326916000491,-37.9164849990045,18644,9381,"UPWEY","YARRA RANGES","Brookside"
"Asphalt",null,"Tennis (Outdoor)","Wandin East Recreation Reserve ",2,"1. Very Poor","N/A","YARRAR11492",3139,"26 - 50 Years","Road",null,145.458532999892,-37.8153089991026,18656,9382,"WANDIN EAST","YARRA RANGES","Monbulk-Seville"
"Artificial Turf",null,"Tennis (Outdoor)","Warburton Tennis Courts",4,"1. Very Poor","N/A","YARRAR11497",3799,"26 - 50 Years","Road",null,145.704015999577,-37.7533839992676,18668,9383,"WARBURTON","YARRA RANGES","Woods point"
"Asphalt",null,"Tennis (Outdoor)","Wickams Road Reserve",2,"1. Very Poor","N/A","YARRAR11452",3139,"26 - 50 Years","Road",null,145.570748000438,-37.788207998787,18566,9384,"LAUCHING PLACE","YARRA RANGES","Wickhams"
"Artificial Turf",null,"Tennis (Outdoor)","Woori Yallock Reserve",4,"2. Poor","1 - 5 Years","YARRAR11499",3139,"26 - 50 Years","Lane","Female",145.532739999597,-37.7833709991624,18676,9385,"WOORI YALLOCK","YARRA RANGES","Shevlins"
"Hard Court",null,"Tennis (Outdoor)","Yarra Glen Tennis Club",3,"2. Poor","1 - 5 Years","YARRAR11500",3775,"26 - 50 Years","Avenue","Female",145.371195999985,-37.6559039993632,18679,9386,"YARRA GLEN","YARRA RANGES","Anzac"
"Artificial Turf",null,"Tennis (Outdoor)","Yarra Glen Tennis Club",1,"2. Poor","1 - 5 Years","YARRAR11500",3775,"26 - 50 Years","Avenue","Female",145.371195999985,-37.6559039993632,18677,9387,"YARRA GLEN","YARRA RANGES","Anzac"
"Asphalt",null,"Tennis (Outdoor)","Yarra Glen Tennis Club",2,"2. Poor","1 - 5 Years","YARRAR11500",3775,"26 - 50 Years","Avenue","Female",145.371195999985,-37.6559039993632,18678,9388,"YARRA GLEN","YARRA RANGES","Anzac"
"Artificial Turf",null,"Tennis (Outdoor)","Yarra Junction Recreation Reserve",4,"4. Good","6 - 10 Years","YARRAR11504",3797,"26 - 50 Years","Road","Female",145.612006000377,-37.7804689988622,18688,9389,"YARRA JUNCTION","YARRA RANGES","Park"
null,null,null,"Barwon Heads Village Park",null,null,null,"GREATE10995",3227,null,"Road",null,144.493427000071,-38.2731679986483,22729,3072,"BARWON HEADS","GREATER GEELONG","Geelong"
"Grass Running Track",null,"Athletics","Barwon Heads Village Park",1,null,null,"GREATE10996",3227,null,"Road",null,144.493427000071,-38.2731679986483,22731,3077,"BARWON HEADS","GREATER GEELONG","Geelong"
"Synthetic Running Track",null,"Athletics","Goldsworthy reserve Athletics facility",1,"3. Average",null,"GREATE11066",3214,"11 - 25 Years","Road","Female, Male",144.353256999985,-38.0789589991347,22834,3078,"CORIO","GREATER GEELONG","Goldsworthy"
"Synthetic Running Track",null,"Athletics","John Landy Athletics field",1,"3. Average",null,"GREATE11081",3220,"26 - 50 Years","Street","Female, Male",144.359009999894,-38.1661499992777,22868,3079,"SOUTH GEELONG","GREATER GEELONG","Swanston"
"Grass",null,"Australian Rules Football","Bakers Oval",1,"2. Poor",null,"GREATE10990",3218,"26 - 50 Years","Avenue","Male",144.338961000224,-38.1359189991422,22718,3081,"GEELONG WEST","GREATER GEELONG","Shannon"
"Grass",null,"Australian Rules Football","Barwon Heads Village Park",1,"4. Good",null,"GREATE10995",3227,"6 - 10 Years","Road","Male",144.493427000071,-38.2731679986483,22725,3082,"BARWON HEADS","GREATER GEELONG","Geelong"
"Grass",null,"Australian Rules Football","Belmont Common North",2,"1. Very Poor",null,"GREATE11004",3216,"26 - 50 Years","Road",null,144.354827000047,-38.168097999164,22744,3083,"BELMONT","GREATER GEELONG","Settlement"
"Grass",null,"Australian Rules Football","Breakwater Reserve",1,"1. Very Poor",null,"GREATE11005",3219,"26 - 50 Years","Street",null,144.370214999694,-38.1836779992516,22746,3084,"BREAKWATER","GREATER GEELONG","Tanner"
"Grass",null,"Australian Rules Football","Collendina Recreation reserve",1,"3. Average",null,"GREATE11017",3226,"11 - 25 Years","Close","Male",144.548822000508,-38.2672779989564,22763,3086,"OCEAN GROVE","GREATER GEELONG","Minerva"
"Grass",null,"Australian Rules Football","Drysdale Recreation Reserve",1,"4. Good",null,"GREATE11032",3222,"26 - 50 Years","Street","Male, Umpire/Officials",144.561327000329,-38.1750259987017,22786,3087,"DRYSDALE","GREATER GEELONG","Wyndham"
"Grass",null,"Australian Rules Football","Ervin Reserve",4,"3. Average",null,"GREATE11038",3219,"11 - 25 Years","Street","Male",144.396884999554,-38.1673089994425,22801,3089,"NEWCOMB","GREATER GEELONG","Richard"
"Grass","293-319","Australian Rules Football","Estuary Estate",1,"4. Good","1 - 5 Years","GEELON5453",null,null,"Road",null,144.453855999674,-38.2023269991461,27720,3090,"LEOPOLD","GREATER GEELONG","Melaluka"
"Grass",null,"Australian Rules Football","Grinter Reserve",1,"3. Average",null,"GREATE11067",3219,"26 - 50 Years","Road","Male",144.403662000358,-38.1796849990108,22835,3091,"NEWCOMB","GREATER GEELONG","Coppards"
"Grass",null,"Australian Rules Football","Kardinia Park (Geelong Cats)",1,"5. Very Good",null,"GREATE11083",3220,"26 - 50 Years","Street","Female, Male, Umpire/Officials, Unisex",144.352791999734,-38.1578319992531,22871,3097,"SOUTH GEELONG","GREATER GEELONG","Kilgour"
"Grass",null,"Australian Rules Football","Kardinia Park (Geelong Cats)",1,"5. Very Good",null,"GREATE11083",3220,"26 - 50 Years","Street","Male, Umpire/Officials",144.352791999734,-38.1578319992531,22870,3098,"SOUTH GEELONG","GREATER GEELONG","Kilgour"
"Grass",null,"Australian Rules Football","Lara Reserve",4,"2. Poor",null,"GREATE11087",3212,"26 - 50 Years","Avenue","Male, Umpire/Officials",144.412987000476,-38.0201279990739,22877,3099,"LARA","GREATER GEELONG","Alkara"
"Grass",null,"Australian Rules Football","Leopold Memorial Recreation reserve",2,"2. Poor",null,"GREATE11092",3224,"26 - 50 Years","Road","Male",144.456858999643,-38.1844159987418,22899,3100,"LEOPOLD","GREATER GEELONG","Melaluka"
"Grass",null,"Australian Rules Football","Ocean Grove Memorial Reserve",1,"3. Average",null,"GREATE11109",3226,"26 - 50 Years","street","Male, Umpire/Officials",144.529800000443,-38.2651019987094,22932,3103,"OCEAN GROVE","GREATER GEELONG","Draper"
"Grass",null,"Australian Rules Football","Osborne Park",2,"3. Average",null,"GREATE11113",3215,"11 - 25 Years","Street","Female, Male, Umpire/Officials",144.355533000414,-38.1185929989403,22935,3104,"NORTH GEELONG","GREATER GEELONG","Swinburne"
"Grass",null,"Australian Rules Football","Portarlington Recreation reserve",2,"2. Poor",null,"GREATE11120",3223,"26 - 50 Years","Street","Male, Umpire/Officials",144.643431000006,-38.1136119994623,22947,3106,"PORTARLINGTON","GREATER GEELONG","Sproat"
"Grass",null,"Australian Rules Football","Richmond Oval",1,"3. Average",null,"GREATE11125",3220,"26 - 50 Years","Crescent","Male, Umpire/Officials",144.365956999767,-38.159518999449,22964,3109,"SOUTH GEELONG","GREATER GEELONG","Richmond"
"Grass",null,"Australian Rules Football","Shell Reserve",1,"4. Good",null,"GREATE11127",3214,"26 - 50 Years","Road","Male, Umpire/Officials",144.361719000144,-38.073085998784,22968,3110,"CORIO","GREATER GEELONG","Purnell"
"Grass",null,"Australian Rules Football","Shell Road reserve",1,"5. Very Good","1 - 5 Years","GREATE11128",3226,"11 - 25 Years","Road","Female, Male, Umpire/Officials",144.537787000042,-38.2593889995094,22971,3111,"OCEAN GROVE","GREATER GEELONG","Shell"
"Grass",null,"Australian Rules Football","South Barwon reserve",6,"1. Very Poor",null,"GREATE11130",3216,"26 - 50 Years","Road",null,144.355989999945,-38.1829209991725,22976,3112,"BELMONT","GREATER GEELONG","Barwon Heads"
"Grass",null,"Australian Rules Football","St Albans Reserve",1,"5. Very Good",null,"GREATE11136",3219,"11 - 25 Years","Road","Male, Umpire/Officials",144.382177000442,-38.1769949988684,22988,3113,"WHITTINGTON","GREATER GEELONG","Boundary"
"Grass",null,"Australian Rules Football","Thomson Recreation Reserve",1,"5. Very Good",null,"GREATE11142",3223,"26 - 50 Years","Street","Male, Umpire/Officials",144.376094999575,-38.1645999989395,23003,3114,"THOMSON","GREATER GEELONG","Godfrey"
"Grass",null,"Australian Rules Football","Western Oval",1,"3. Average",null,"GREATE11154",3215,"26 - 50 Years","Street","Male, Umpire/Officials",144.346009000539,-38.1302559988463,23024,3115,"NORTH GEELONG","GREATER GEELONG","Church"
"Grass",null,"Australian Rules Football","Windsor Park",1,"4. Good",null,"GREATE11157",3214,"11 - 25 Years","Avenue","Male, Umpire/Officials",144.362593000046,-38.0899729986925,23030,3117,"NORLANE","GREATER GEELONG","Gerbera"
"Grass",null,"Australian Rules Football","Winter Reserve",2,"2. Poor",null,"GREATE11158",3216,"26 - 50 Years","Avenue","Male, Umpire/Officials",144.33904300045,-38.1852789993429,23034,3118,"BELMONT","GREATER GEELONG","Kidman"
"Wooden Gymnasium",null,"Badminton","Leisuretime Centre",22,"3. Average",null,"GREATE11090",3214,"26 - 50 Years","Road","Female, Male",144.336720000312,-38.0912389993048,22888,3120,"NORLANE","GREATER GEELONG","Anakie"
"Grass",null,"Baseball","Lara Reserve",1,"1. Very Poor",null,"GREATE11087",3212,null,"Avenue",null,144.412987000476,-38.0201279990739,22878,3121,"LARA","GREATER GEELONG","Alkara"
"Grass",null,"Baseball","Stead Park",2,"1. Very Poor","1 - 5 Years","GREATE11138",3214,"26 - 50 Years","Hwy",null,144.36375499952,-38.0829299991264,22995,3124,"CORIO","GREATER GEELONG","Princess"
"Grass",null,"Baseball","Wallington Reserve",1,"2. Poor",null,"GREATE11149",3222,"11 - 25 Years","Road","Male",144.502269999904,-38.2280399993213,23014,3125,"WALLINGTON","GREATER GEELONG","Wallington"
"Wooden Gymnasium","110","Basketball","Geelong Arena",4,"3. Average",null,"GREATE11056",3215,"26 - 50 Years","Street","Female, Male, Umpire/Officials",144.351142000561,-38.123305998991,22823,3127,"NORTH GEELONG","GREATER GEELONG","Victoria"
"Wooden Gymnasium","25","Basketball","Newtown Stadium",2,null,null,"GREATE11105",3220,null,"Road",null,144.338758999784,-38.1620199991272,22927,3128,"NEWTOWN","GREATER GEELONG","Riversdale"
"Dirt",null,"BMX","Corio Community Reserve",1,"1. Very Poor",null,"GREATE11022",3214,"11 - 25 Years","Street",null,144.368306000024,-38.0724359993822,22769,3129,"CORIO","GREATER GEELONG","Bogong"
"Dirt",null,"BMX","Grinter Reserve",1,"5. Very Good",null,"GREATE11067",3219,"0 - 5 Years","Road",null,144.403662000358,-38.1796849990108,22836,3130,"NEWCOMB","GREATER GEELONG","Coppards"
"Dirt",null,"BMX","South Barwon reserve",1,"1. Very Poor",null,"GREATE11130",3216,"26 - 50 Years","Road",null,144.355989999945,-38.1829209991725,22977,3131,"BELMONT","GREATER GEELONG","Barwon Heads"
null,null,"Bocce","Hume Reserve",1,"3. Average",null,"GREATE11075",3215,"11 - 25 Years","Road",null,144.34014199944,-38.106189998662,22861,3132,"BELL PARK","GREATER GEELONG","Thomson"
null,null,"Bocce","Len Trewin Reserve",1,null,null,"GREATE11091",3223,null,"Street",null,144.711039000157,-38.1755209991436,22894,3133,"ST LEONARDS","GREATER GEELONG","Cole"
null,"84","Boxing","Barwon Heads Boxing and Fitness",null,null,null,"GREATE10993",3227,null,"Avenue",null,144.492676999913,-38.2790329986444,22722,3134,"BARWON HEADS","GREATER GEELONG","Hitchcock"
"Synthetic Pitch",null,"Cricket","Bakers Oval",1,"2. Poor",null,"GREATE10990",3218,"26 - 50 Years","Avenue","Male",144.338961000224,-38.1359189991422,22719,3136,"GEELONG WEST","GREATER GEELONG","Shannon"
"Synthetic Pitch",null,"Cricket","Barwon Heads Village Park",2,"4. Good",null,"GREATE10995",3227,"6 - 10 Years","Road","Male",144.493427000071,-38.2731679986483,22726,3137,"BARWON HEADS","GREATER GEELONG","Geelong"
"Synthetic Pitch",null,"Cricket","Belmont Common North",3,"1. Very Poor",null,"GREATE11004",3216,"26 - 50 Years","Road",null,144.354827000047,-38.168097999164,22745,3138,"BELMONT","GREATER GEELONG","Settlement"
"Synthetic Pitch",null,"Cricket","Breakwater Reserve",1,"1. Very Poor",null,"GREATE11005",3219,"26 - 50 Years","Street",null,144.370214999694,-38.1836779992516,22747,3139,"BREAKWATER","GREATER GEELONG","Tanner"
"Synthetic Pitch",null,"Cricket","Breamlea Recreation Reserve",1,"1. Very Poor",null,"GREATE11006",3227,"6 - 10 Years","Drive",null,144.390421999913,-38.2942649992081,22749,3140,"BREAMLEA","GREATER GEELONG","Horwood"
"Synthetic Pitch",null,"Cricket","Collendina Recreation reserve",1,"3. Average",null,"GREATE11017",3226,"11 - 25 Years","Close","Male",144.548822000508,-38.2672779989564,22764,3143,"OCEAN GROVE","GREATER GEELONG","Minerva"
"Synthetic Pitch",null,"Cricket","Drysdale Recreation Reserve",1,"2. Poor",null,"GREATE11032",3222,"26 - 50 Years","Street","Male",144.561327000329,-38.1750259987017,22787,3145,"DRYSDALE","GREATER GEELONG","Wyndham"
"Synthetic Pitch",null,"Cricket","Eastern Park",4,"3. Average",null,"GREATE11034",3219,"26 - 50 Years","Street",null,144.37848900014,-38.1521649988573,22792,3146,"EAST GEELONG","GREATER GEELONG","Garden"
"Synthetic Pitch",null,"Cricket","Ervin Reserve",2,"3. Average",null,"GREATE11038",3219,"11 - 25 Years","Street","Male",144.396884999554,-38.1673089994425,22802,3148,"NEWCOMB","GREATER GEELONG","Richard"
"Synthetic Pitch",null,"Cricket","Evans Reserve",1,"4. Good",null,"GREATE11039",3214,"26 - 50 Years","Road","Umpire/Officials, Unisex",144.349982000009,-38.0921909993424,22804,3149,"NORLANE","GREATER GEELONG","Sparks"
"Synthetic Pitch",null,"Cricket","Flinders Peak",1,null,null,"GREATE11049",3214,null,"Street",null,144.365203000483,-38.065199999102,22815,3150,"CORIO","GREATER GEELONG","Hendy"
"Turf Pitch",null,"Cricket","Frier Reserve",1,"2. Poor",null,"GREATE11054",3220,"26 - 50 Years","Street","Male",144.340567999903,-38.1597229993464,22821,3151,"NEWTOWN","GREATER GEELONG","West Fyans"
"Synthetic Pitch",null,"Cricket","Grinter Reserve",2,"3. Average",null,"GREATE11067",3219,"26 - 50 Years","Road","Male",144.403662000358,-38.1796849990108,22837,3152,"NEWCOMB","GREATER GEELONG","Coppards"
"Synthetic Pitch",null,"Cricket","Grovedale recreation Reserve",1,null,null,"GREATE11068",3216,null,"Road",null,144.343035999655,-38.2063629988749,22840,3153,"GROVEDALE","GREATER GEELONG","Reserve"
"Turf Pitch",null,"Cricket","Kardinia Park (Geelong Cats)",2,"4. Good",null,"GREATE11083",3220,"11 - 25 Years","Street","Male",144.352791999734,-38.1578319992531,22872,3159,"SOUTH GEELONG","GREATER GEELONG","Kilgour"
"Synthetic Pitch",null,"Cricket","Lara Reserve",3,"2. Poor",null,"GREATE11087",3212,"26 - 50 Years","Avenue","Male, Umpire/Officials",144.412987000476,-38.0201279990739,22880,3160,"LARA","GREATER GEELONG","Alkara"
